business_id,city,full_address,latitude,longitude,name,review_count,stars,state,type,Sunday_Open,Sunday_Close,Monday_Open,Monday_Close,Tuesday_Open,Tuesday_Close,Wednesday_Open,Wednesday_Close,Thursday_Open,Thursday_Close,Friday_Open,Friday_Close,Saturday_Open,Saturday_Close,Noise Level,Attire,Alcohol,Price_Range,Delivery,Outdoor_Seating,Drive-Thru,Good_for_Groups,Has_TV,Caters,Waiter_Service,Good_for_Kids,Accepts_Credit_Cards,Takes_Reservations,Wi_Fi,Happy_Hour,Good_for_Dancing,Smoking,BYOB,Corkage,Take_Out,Coat_Check,Parking_Street,Parking_Valet,Parking_Lot,Parking_Garage,Parking_Validated,Music_DJ,Music_Karaoke,Music_Video,Music_Live,Music_Jukebox,Music_Background_Music,Is_Restaurants,Sandwiches,Fast Food,Nightlife,Pizza,Bars,Mexican,Food,American (Traditional),Burgers,Chinese,Italian,American (New),Breakfast & Brunch,Thai,Indian,Sushi Bars,Korean,Mediterranean,Japanese,Seafood,Middle Eastern,Pakistani,Barbeque,Vietnamese,Asian Fusion,Diners,Greek,Vegetarian,Number_of_Checkins,Number_of_Tips,Number_of_Tip_Likes
F7l0UuTvf_734UMAwsJfkg,Las Vegas,"1701 Bearden Dr Downtown Las Vegas, NV 89106",36.161516999999996,-115.16401100000002,Apex Medical Center,3,3.5,NV,business,,,,,,,,,,,,,,,,,,,,,,,,,,,,,,,,,,,,,,,,,,,,,,,,0,0,0,0,0,0,0,0,0,0,0,0,0,0,0,0,0,0,0,0,0,0,0,0,0,0,0,0,0,0,0,0
uzztTCsg3XAKlYqmLO40aw,Las Vegas,"5835 S Eastern Ave Southeast Las Vegas, NV 89119",36.0839363,-115.11942250000001,Psychic Eye Book Shops,16,4.0,NV,business,11:00,18:00,10:00,21:00,11:00,21:00,10:00,21:00,10:00,21:00,10:00,21:00,10:00,21:00,,,,2.0,,,,,,,,0.0,1.0,,,,,,,,,,0.0,0.0,1.0,0.0,0.0,,,,,,,0,0,0,0,0,0,0,0,0,0,0,0,0,0,0,0,0,0,0,0,0,0,0,0,0,0,0,0,0,33,4,0
IspFZDcpu9W5NvvJ7QgJZg,Las Vegas,"The Forum Shops At Caesars 3500 Las Vegas Blvd So The Strip Las Vegas, NV 89109",36.1190372,-115.1732186,Gap,7,4.5,NV,business,10:00,23:00,10:00,23:00,10:00,23:00,10:00,23:00,10:00,23:00,10:00,00:00,10:00,00:00,,,,2.0,,,,,,,,,1.0,,,,,,,,,,0.0,0.0,0.0,1.0,0.0,,,,,,,0,0,0,0,0,0,0,0,0,0,0,0,0,0,0,0,0,0,0,0,0,0,0,0,0,0,0,0,0,33,2,0
Dvulg9cc3XHkt5DkBUekhw,Las Vegas,"467 E Silverado Ranch Blvd Ste 175 Southeast Las Vegas, NV 89183",36.012517700000004,-115.1526505,Great Clips,14,3.0,NV,business,09:00,18:00,09:00,21:00,09:00,21:00,09:00,21:00,09:00,21:00,09:00,21:00,09:00,19:00,,,,1.0,,,,,,,,1.0,1.0,,,,,,,,,,0.0,0.0,1.0,0.0,0.0,,,,,,,0,0,0,0,0,0,0,0,0,0,0,0,0,0,0,0,0,0,0,0,0,0,0,0,0,0,0,0,0,78,7,0
zPWqckZlomy5n6CIfYS62Q,Las Vegas,"5695 S Boulder Highway Southeast Las Vegas, NV 89122",36.099236,-115.04793090000001,SuperPawn,5,2.5,NV,business,12:00,17:00,09:00,20:00,09:00,20:00,09:00,20:00,09:00,20:00,09:00,20:00,09:00,20:00,,,,,,,,,,,,,,,,,,,,,,,,,,,,,,,,,,0,0,0,0,0,0,0,0,0,0,0,0,0,0,0,0,0,0,0,0,0,0,0,0,0,0,0,0,0,4,0,0
oD2qusBcJwPHhB6APuu59A,Las Vegas,"2800 N Tenaya Way Ste 203 Las Vegas, NV 89128",36.211152,-115.24878000000001,Linda Woodson Dermatology,34,2.5,NV,business,,,09:00,17:00,09:00,17:00,09:00,17:00,09:00,17:00,09:00,17:00,,,,,,,,,,,,,,,,,,,,,,,,,,,,,,,,,,,,0,0,0,0,0,0,0,0,0,0,0,0,0,0,0,0,0,0,0,0,0,0,0,0,0,0,0,0,0,15,4,0
_SM8UKIwBNbmj1r629ipoQ,Las Vegas,"1916 Village Center Cir Summerlin Las Vegas, NV 89134",36.1936092,-115.3040091,Chianti Cafe,9,3.5,NV,business,,,11:00,23:00,11:00,23:00,11:00,23:00,11:00,23:00,11:00,00:00,11:00,00:00,,casual,full_bar,2.0,0.0,1.0,,1.0,,,1.0,1.0,1.0,1.0,,1.0,,no,1.0,1.0,0.0,0.0,0.0,0.0,1.0,0.0,0.0,0.0,,0.0,1.0,0.0,,1,0,0,1,0,1,0,0,0,0,0,1,0,0,0,0,0,0,0,0,0,0,0,0,0,0,0,0,0,0,0,0
J8XafvvbGCNwWesfHTqc1Q,Las Vegas,"10080 Alta Dr Ste 120 Westside Las Vegas, NV 89145",36.168738700000006,-115.3144126,"Ken Landow, MD",39,3.5,NV,business,,,08:00,17:00,08:00,17:00,08:00,17:00,08:00,17:00,08:00,17:00,,,,,,2.0,,,,,,,,,1.0,,,,,,,,,,0.0,0.0,1.0,0.0,0.0,,,,,,,0,0,0,0,0,0,0,0,0,0,0,0,0,0,0,0,0,0,0,0,0,0,0,0,0,0,0,0,0,11,1,0
Zaw0IAXwopKX4MV23MHQRw,Las Vegas,"2718 E Tropicana Avenue Eastside Las Vegas, NV 89121",36.10028629999999,-115.1132293,Terrible Herbst,3,1.5,NV,business,,,,,,,,,,,,,,,,,,,,,,,,,,,,,,,,,,,,,,,,,,,,,,,,0,0,0,0,0,0,0,0,0,0,0,0,0,0,0,0,0,0,0,0,0,0,0,0,0,0,0,0,0,8,1,0
hl_4iw38sPoR4u5lX2qFDQ,Las Vegas,"5195 S Valley View Blvd Las Vegas, NV 89118",36.095622,-115.19034199999999,Re-Bath,9,2.5,NV,business,,,09:00,17:00,09:00,17:00,09:00,17:00,09:00,17:00,09:00,17:00,10:00,15:00,,,,4.0,,,,,,,,,1.0,,,,,,,,,,,,,,,,,,,,,0,0,0,0,0,0,0,0,0,0,0,0,0,0,0,0,0,0,0,0,0,0,0,0,0,0,0,0,0,0,1,0
o5x_Rd3WchjNZHF3xphqwQ,Las Vegas,"8275 S Eastern Ave Ste 101 Southeast Las Vegas, NV 89123",36.0388712,-115.11899109999999,Smith Susan DDS,3,5.0,NV,business,,,08:00,17:00,08:00,17:00,08:00,17:00,08:00,17:00,08:00,15:00,,,,,,,,,,,,,,,,,,,,,,,,,,,,,,,,,,,,0,0,0,0,0,0,0,0,0,0,0,0,0,0,0,0,0,0,0,0,0,0,0,0,0,0,0,0,0,3,0,0
I83NNRHZRQZiCPcd9QzC5w,Las Vegas,"4111 Boulder Hwy Las Vegas, NV 89121",36.133052,-115.08490159999998,Boulder Station Hotel & Casino,172,3.0,NV,business,00:00,00:00,00:00,00:00,00:00,00:00,00:00,00:00,00:00,00:00,00:00,00:00,00:00,00:00,,,,2.0,,,,1.0,,,,0.0,1.0,,paid,,,,,,,,,,,,,,,,,,,0,0,0,0,0,0,0,0,0,0,0,0,0,0,0,0,0,0,0,0,0,0,0,0,0,0,0,0,0,874,66,1
Hxif_8Oyady2jR9TUlprzQ,Las Vegas,"10105 Banburry Cross Dr Ste 350 Summerlin Las Vegas, NV 89144",36.1828297,-115.3163645,"Lionel J Handler, MD",3,3.5,NV,business,,,08:00,17:00,08:00,17:00,08:00,18:00,08:00,18:00,08:00,18:00,,,,,,2.0,,,,,,,,,1.0,,,,,,,,,,0.0,0.0,0.0,0.0,0.0,,,,,,,0,0,0,0,0,0,0,0,0,0,0,0,0,0,0,0,0,0,0,0,0,0,0,0,0,0,0,0,0,0,0,0
4rlKCK8kKvtFfLWLomIE7A,Las Vegas,"6226 S Sandhill Rd Ste B Southeast Las Vegas, NV 89120",36.0761322,-115.0910413,Aqua Plumbing LLC,5,3.5,NV,business,00:00,00:00,00:00,00:00,00:00,00:00,00:00,00:00,00:00,00:00,00:00,00:00,00:00,00:00,,,,,,,,,,,,,1.0,,,,,,,,,,,,,,,,,,,,,0,0,0,0,0,0,0,0,0,0,0,0,0,0,0,0,0,0,0,0,0,0,0,0,0,0,0,0,0,0,0,0
1KvN6aZ6e-PutO0XW8NyCw,Las Vegas,"2950 E. Flamingo St Ste I Eastside Las Vegas, NV 89121",36.1154439,-115.1104147,Law Offices of Jorge G Corral,7,2.5,NV,business,,,09:00,17:00,09:00,17:00,09:00,17:00,09:00,17:00,09:00,17:00,,,,,,,,,,,,,,,,,,,,,,,,,,,,,,,,,,,,0,0,0,0,0,0,0,0,0,0,0,0,0,0,0,0,0,0,0,0,0,0,0,0,0,0,0,0,0,0,1,0
BKNC0g_rFg6fjhAOnJOyrA,Las Vegas,"3231 N Decatur Blvd Ste 219 Northwest Las Vegas, NV 89130",36.218057,-115.208424,Nevada Career Institute,4,2.0,NV,business,,,08:30,22:00,08:30,22:00,08:30,22:00,08:30,22:00,08:30,22:00,,,,,,,,,,,,,,,,,,,,,,,,,,,,,,,,,,,,0,0,0,0,0,0,0,0,0,0,0,0,0,0,0,0,0,0,0,0,0,0,0,0,0,0,0,0,0,0,5,0
6RwDGtHa7Iau8FOtjkkvLA,Las Vegas,"3975 W Quail Ave Ste 4 Las Vegas, NV 89118",36.083996,-115.19305,Neil Smith's Vegas Guitars Custom Shop,8,5.0,NV,business,,,,,,,,,,,,,,,,,,2.0,,,,,,,,,1.0,,,,,,,,,,0.0,0.0,1.0,0.0,0.0,,,,,,,0,0,0,0,0,0,0,0,0,0,0,0,0,0,0,0,0,0,0,0,0,0,0,0,0,0,0,0,0,0,0,0
ZeMHiF-u7WZY1gf3-L6Alg,Las Vegas,"1631 W Craig Rd Ste 5-8 Las Vegas, NV 89030",36.2040034,-115.12962490000001,Petco,14,2.5,NV,business,10:00,19:00,09:00,21:00,09:00,21:00,09:00,21:00,09:00,21:00,09:00,21:00,09:00,21:00,,,,,,,,,,,,,,,,,,,,,,,,,,,,,,,,,,0,0,0,0,0,0,0,0,0,0,0,0,0,0,0,0,0,0,0,0,0,0,0,0,0,0,0,0,0,63,1,0
l6QcUE8XXLrVH6Ydm4GSNw,Las Vegas,"Texas Station Casino 2101 Texas Star Ln Las Vegas, NV 89032",36.1974092,-115.19138490000002,Fatburger,12,3.0,NV,business,00:00,00:00,00:00,00:00,00:00,00:00,00:00,00:00,00:00,00:00,00:00,00:00,00:00,00:00,very_loud,casual,none,1.0,0.0,1.0,0.0,1.0,0.0,0.0,0.0,1.0,1.0,0.0,no,,,,0.0,0.0,1.0,,0.0,0.0,0.0,1.0,0.0,,,,,,,1,0,1,0,0,0,0,0,1,1,0,0,0,0,0,0,0,0,0,0,0,0,0,0,0,0,0,0,0,39,3,0
aBFiwLYaReshow7wi9Jmqw,Las Vegas,"2715 W Craig Rd Las Vegas, NV 89032",36.238889799999995,-115.1783004,Discount Tire Store - North Las Vegas,28,5.0,NV,business,,,08:00,18:00,08:00,18:00,08:00,18:00,08:00,18:00,08:00,18:00,08:00,17:00,,,,,,,,,,,,,,,,,,,,,,,,,,,,,,,,,,0,0,0,0,0,0,0,0,0,0,0,0,0,0,0,0,0,0,0,0,0,0,0,0,0,0,0,0,0,52,7,0
P4kL61pMUMSUYFkSKhbk5g,Las Vegas,"Las Vegas, NV 89142",36.175,-115.136389,Tile Savers of Nevada,3,4.5,NV,business,07:00,21:00,07:00,21:00,07:00,21:00,07:00,21:00,07:00,21:00,07:00,21:00,07:00,21:00,,,,,,,,,,,,,1.0,,,,,,,,,,,,,,,,,,,,,0,0,0,0,0,0,0,0,0,0,0,0,0,0,0,0,0,0,0,0,0,0,0,0,0,0,0,0,0,0,0,0
2eXRcLkP65MjeUIQBu9-lg,Las Vegas,"9480 S Eastern Ave Ste 252 Southeast Las Vegas, NV 89123",36.0164875,-115.11817690000001,Sherry Goldstein's Yoga Sanctuary,16,4.5,NV,business,,,,,,,,,,,,,,,,,,,,,,,,,,0.0,,,,,,,,,,,,,,,,,,,,,,0,0,0,0,0,0,0,0,0,0,0,0,0,0,0,0,0,0,0,0,0,0,0,0,0,0,0,0,0,282,20,1
AgtFQVxo-PGQVsOdY6Nvdg,Las Vegas,"10525 Eastern Ave Ste 130 Anthem Las Vegas, NV 89101",35.9992047,-115.1074743,Pizza Hut,7,3.5,NV,business,,,,,,,,,,,,,,,,,none,2.0,1.0,,,1.0,1.0,,0.0,1.0,1.0,0.0,,,,,,,1.0,,,,,,,,,,,,,1,0,0,0,1,0,0,0,0,0,0,0,0,0,0,0,0,0,0,0,0,0,0,0,0,0,0,0,0,11,1,0
Yz6ikkTerRArkbtz6brwIg,Las Vegas,"1620 E Serene Ave Southeast Las Vegas, NV 89123",36.020948700000005,-115.1306003,Pilates By Dolly Eastside,3,5.0,NV,business,08:00,13:00,07:00,19:00,07:00,19:00,07:00,19:00,07:00,19:00,07:00,19:00,08:00,13:00,,,,,,,,,,,,1.0,,,,,,,,,,,,,,,,,,,,,,0,0,0,0,0,0,0,0,0,0,0,0,0,0,0,0,0,0,0,0,0,0,0,0,0,0,0,0,0,5,0,0
muqFM9Hoamh_fGL4MPeZqg,Las Vegas,"9470 Eastern Ave Southeast Las Vegas, NV 89123",36.017604999999996,-115.1178915,Fado Irish Pub,22,3.5,NV,business,11:00,02:00,11:00,02:00,11:00,02:00,11:00,02:00,11:00,02:00,11:00,02:00,11:00,02:00,,casual,full_bar,2.0,0.0,0.0,,1.0,,,1.0,0.0,1.0,1.0,,1.0,,outdoor,,,1.0,0.0,0.0,0.0,1.0,0.0,0.0,0.0,,0.0,1.0,0.0,,1,0,0,1,0,1,0,0,0,0,0,0,0,0,0,0,0,0,0,0,0,0,0,0,0,0,0,0,0,0,0,0
-Pn2M22Tf0AUwNsT8UlSyA,Las Vegas,"7770 Duneville St Ste 5 Southwest Las Vegas, NV 89118",36.0480738,-115.22048600000001,Green Planet Landscaping,9,3.5,NV,business,,,09:00,17:00,09:00,17:00,09:00,17:00,09:00,17:00,09:00,17:00,,,,,,,,,,,,,,,1.0,,,,,,,,,,,,,,,,,,,,,0,0,0,0,0,0,0,0,0,0,0,0,0,0,0,0,0,0,0,0,0,0,0,0,0,0,0,0,0,0,1,0
Pi03WhCpmq2DSubHON6Y8Q,Las Vegas,"4631 E Charleston Blvd Sunrise Las Vegas, NV 89104",36.15868820000001,-115.073852,Nevada Foot Institute,4,2.5,NV,business,,,,,,,,,,,,,,,,,,,,,,,,,,,,,,,,,,,,,,,,,,,,,,,,0,0,0,0,0,0,0,0,0,0,0,0,0,0,0,0,0,0,0,0,0,0,0,0,0,0,0,0,0,0,0,0
iSAQMeIOwse9ONiqcSOHQg,Las Vegas,"9550 S Eastern Ave Las Vegas, NV 89123",36.0146737,-115.1173662,Best Mattress,3,2.5,NV,business,,,,,,,,,,,,,,,,,,3.0,,,,,,,,,1.0,,,,,,,,,,,0.0,,,,,,,,,,0,0,0,0,0,0,0,0,0,0,0,0,0,0,0,0,0,0,0,0,0,0,0,0,0,0,0,0,0,4,3,0
_cCXT5YPOW4-rNCuNVZf2g,Las Vegas,"1920 E. Serene Avenue Suite 530 Southeast Las Vegas, NV 89123",36.021060999999996,-115.12595449999999,Mattress Firm Clearance,25,4.5,NV,business,12:00,18:00,10:00,20:00,10:00,20:00,10:00,20:00,10:00,20:00,10:00,20:00,10:00,20:00,,,,2.0,,,,,,,,,1.0,,,,,,,,,,0.0,0.0,1.0,0.0,0.0,,,,,,,0,0,0,0,0,0,0,0,0,0,0,0,0,0,0,0,0,0,0,0,0,0,0,0,0,0,0,0,0,11,2,0
TQVSaC0HOUIVRiJn7Cx-gA,Las Vegas,"2950 S Maryland Pkwy Eastside Las Vegas, NV 89109",36.136246,-115.1359712,Steinberg Diagnostic Medical Imaging,15,2.5,NV,business,,,07:00,17:30,07:00,17:30,07:00,17:30,07:00,17:30,07:00,17:30,07:30,13:30,,,,,,,,,,,,,,,,,,,,,,,,,,,,,,,,,,0,0,0,0,0,0,0,0,0,0,0,0,0,0,0,0,0,0,0,0,0,0,0,0,0,0,0,0,0,35,4,0
FGorBTbpa1VmLwf4nXBqPw,Las Vegas,"8530 W Sunset Rd Ste 230 Spring Valley Las Vegas, NV 89113",36.0714488,-115.27770770000001,Ear Nose & Throat Consultants of Nevada,17,2.5,NV,business,,,,,,,,,,,,,,,,,,,,,,,,,,,,,,,,,,,,,,,,,,,,,,,,0,0,0,0,0,0,0,0,0,0,0,0,0,0,0,0,0,0,0,0,0,0,0,0,0,0,0,0,0,27,5,0
jiw3ch0LEctehsc3w2hWYA,Las Vegas,"The Strip Las Vegas, NV 89052",36.1160690793707,-115.172652465882,Aardvark Video and Media Productions,3,5.0,NV,business,09:00,17:00,09:00,17:00,09:00,17:00,09:00,17:00,09:00,17:00,09:00,17:00,09:00,17:00,,,,,,,,,,,,,,,,,,,,,,,,,,,,,,,,,,0,0,0,0,0,0,0,0,0,0,0,0,0,0,0,0,0,0,0,0,0,0,0,0,0,0,0,0,0,0,0,0
5WCXIZI2_M444IHPwxnt7Q,Las Vegas,"653 N Town Center Dr Ste 406 Summerlin Las Vegas, NV 89144",36.1808271,-115.3154314,Desert Valley Pediatrics,30,2.5,NV,business,,,08:00,17:00,08:00,17:00,08:00,17:00,08:00,17:00,08:00,17:00,,,,,,,,,,,,,,,,,,,,,,,,,,,,,,,,,,,,0,0,0,0,0,0,0,0,0,0,0,0,0,0,0,0,0,0,0,0,0,0,0,0,0,0,0,0,0,61,11,0
jQgqPIf5QWH9iLQ0lSTXlg,Las Vegas,"Generations Medical Center 5135 S Durango Dr, Ste 102 Spring Valley Las Vegas, NV 89113",36.09556,-115.279724,"Arezo M. Fathie, MD",3,3.5,NV,business,,,,,,,,,,,,,,,,,,1.0,,,,,,,,,1.0,,,,,,,,,,,,,,,,,,,,,0,0,0,0,0,0,0,0,0,0,0,0,0,0,0,0,0,0,0,0,0,0,0,0,0,0,0,0,0,0,1,0
zcAdkDiCRmiHqH_TesLjTA,Las Vegas,"25 E Wigwam Ave Ste 102 Southeast Las Vegas, NV 89123",36.035332000000004,-115.17107209999999,Hanger Prosthetics & Orthotics,4,2.5,NV,business,,,,,,,,,,,,,,,,,,,,,,,,,,,,,,,,,,,,,,,,,,,,,,,,0,0,0,0,0,0,0,0,0,0,0,0,0,0,0,0,0,0,0,0,0,0,0,0,0,0,0,0,0,0,0,0
hAbB-Vcaf2BPpgY4ioeZpw,Las Vegas,"6315 S Rainbow Blvd Ste 104 Spring Valley Las Vegas, NV 89118",36.0737884,-115.2434154,Natural Care Institute,12,4.5,NV,business,,,08:00,12:00,08:00,18:00,08:00,18:00,08:00,18:00,08:00,14:00,,,,,,,,,,,,,,,,,,,,,,,,,,,,,,,,,,,,0,0,0,0,0,0,0,0,0,0,0,0,0,0,0,0,0,0,0,0,0,0,0,0,0,0,0,0,0,8,1,0
0k-VfADQlgESYsjRJ0P0KA,Las Vegas,"2100 N Rampart Blvd Summerlin Las Vegas, NV 89128",36.1982525676501,-115.283225185865,Shepherd Eye Center,16,3.5,NV,business,,,08:00,17:00,08:00,17:00,08:00,17:00,08:00,17:00,08:00,17:00,,,,,,,,,,,,,,,,,,,,,,,,,,,,,,,,,,,,0,0,0,0,0,0,0,0,0,0,0,0,0,0,0,0,0,0,0,0,0,0,0,0,0,0,0,0,0,14,3,0
EZjyi60f7UyZ77vPrF6P2Q,Las Vegas,"9100 W Post Rd Spring Valley Las Vegas, NV 89148",36.0753219,-115.2906628,Nevada Eye & Ear,6,2.5,NV,business,,,,,,,,,,,,,,,,,,,,,,,,,,,,,,,,,,,,,,,,,,,,,,,,0,0,0,0,0,0,0,0,0,0,0,0,0,0,0,0,0,0,0,0,0,0,0,0,0,0,0,0,0,13,0,0
HAdB0XDuZ8DnYIGp2g-CcQ,Las Vegas,"900 E Karen Ave Ste D202 Eastside Las Vegas, NV 89109",36.1405381,-115.1426058,The Sci-Fi Center,10,5.0,NV,business,,,11:00,19:00,11:00,19:00,11:00,19:00,11:00,19:00,11:00,23:00,11:00,23:00,,,,1.0,,,,,,,,1.0,1.0,,,,,,,,,,0.0,0.0,1.0,0.0,0.0,,,,,,,0,0,0,0,0,0,0,0,0,0,0,0,0,0,0,0,0,0,0,0,0,0,0,0,0,0,0,0,0,82,8,0
CKb5vfHZO-HKjIQgSWXC8w,Las Vegas,"1507 W Oakey Blvd Las Vegas, NV 89102",36.1522814,-115.16217979999999,The Studio,6,5.0,NV,business,,,,,,,,,,,,,,,,,,2.0,,,,,,,,,1.0,,,,,,,,,,0.0,0.0,1.0,0.0,0.0,,,,,,,0,0,0,0,0,0,0,0,0,0,0,0,0,0,0,0,0,0,0,0,0,0,0,0,0,0,0,0,0,17,1,0
hyrZfJyUCvrJE4r7MZQ1qg,Las Vegas,"1507 W Oakey Blvd Las Vegas, NV 89102",36.1522814,-115.16217979999999,Paradise Electro Stimulations,3,4.5,NV,business,,,,,,,,,,,,,,,,,,3.0,,,,,,,,,0.0,,,,,,,,,,0.0,0.0,1.0,0.0,0.0,,,,,,,0,0,0,0,0,0,0,0,0,0,0,0,0,0,0,0,0,0,0,0,0,0,0,0,0,0,0,0,0,8,0,0
VZyE9u5-gAG62zfe53hXWA,Las Vegas,"1501 W Sahara Ave Las Vegas, NV 89102",36.1436722,-115.1697916,Artisan Hotel Boutique,387,3.0,NV,business,00:00,00:00,00:00,00:00,00:00,00:00,00:00,00:00,00:00,00:00,00:00,00:00,00:00,00:00,very_loud,,full_bar,2.0,,1.0,,1.0,1.0,,,,1.0,,free,1.0,1.0,outdoor,,,,1.0,0.0,1.0,0.0,0.0,0.0,1.0,0.0,0.0,0.0,0.0,0.0,0,0,0,1,0,1,0,0,0,0,0,0,0,0,0,0,0,0,0,0,0,0,0,0,0,0,0,0,0,1053,146,2
AFDFOs2GaIyUArGyEUDQzQ,Las Vegas,"4355 Spring Mountain Rd Chinatown Las Vegas, NV 89102",36.125908,-115.19790400000001,Cafe Noodle & Chinese Barbeque,190,3.5,NV,business,11:00,02:00,11:00,02:00,11:00,02:00,11:00,02:00,11:00,02:00,11:00,02:00,11:00,02:00,average,casual,beer_and_wine,1.0,0.0,0.0,,1.0,1.0,0.0,1.0,1.0,1.0,0.0,no,,,,,0.0,1.0,,0.0,0.0,1.0,0.0,0.0,,,,,,,1,0,0,0,0,0,0,0,0,0,1,0,0,0,0,0,0,0,0,0,0,0,0,0,0,0,0,0,0,978,91,3
FV16IeXJp2W6pnghTz2FAw,Las Vegas,"4029 Spring Mountain Rd Chinatown Las Vegas, NV 89102",36.126177,-115.19397099999999,Pho Kim Long,1907,3.5,NV,business,06:00,06:00,06:00,06:00,06:00,06:00,06:00,06:00,06:00,06:00,06:00,06:00,06:00,06:00,average,casual,beer_and_wine,2.0,0.0,0.0,,1.0,0.0,0.0,1.0,1.0,1.0,0.0,no,,,,,,1.0,,0.0,0.0,1.0,0.0,0.0,,,,,,,1,0,0,0,0,0,0,0,0,0,1,0,0,0,0,0,0,0,0,0,0,0,0,0,1,0,0,0,0,10562,813,5
0yMFHlhqKshLYd66vYQ3Bg,Las Vegas,"1701 S Decatur Blvd Westside Las Vegas, NV 89102",36.1515274,-115.2078199,Mastroianni Fashions,11,3.0,NV,business,11:00,17:00,10:00,19:00,10:00,19:00,10:00,19:00,10:00,19:00,10:00,19:00,10:00,18:00,,,,2.0,,,,,,,,,1.0,,,,,,,,,,0.0,0.0,1.0,0.0,0.0,,,,,,,0,0,0,0,0,0,0,0,0,0,0,0,0,0,0,0,0,0,0,0,0,0,0,0,0,0,0,0,0,12,0,0
ZzFzGe8j4saQnNOAf5X8ew,Las Vegas,"3111 S Valley View Blvd Westside Las Vegas, NV 89102",36.1318533,-115.19206799999999,Universal Carpet Care,6,3.0,NV,business,00:00,00:00,00:00,00:00,00:00,00:00,00:00,00:00,00:00,00:00,00:00,00:00,00:00,00:00,,,,,,,,,,,,,1.0,,,,,,,,,,,,,,,,,,,,,0,0,0,0,0,0,0,0,0,0,0,0,0,0,0,0,0,0,0,0,0,0,0,0,0,0,0,0,0,0,0,0
biSzvkKWukoH3Gfwij988w,Las Vegas,"3441 W Sahara Ave Ste C7 Westside Las Vegas, NV 89102",36.143566401099,-115.188219472491,Meadows Chiropractic,16,5.0,NV,business,,,09:00,18:00,14:00,18:00,09:00,18:00,09:00,18:00,09:00,18:00,,,,,,,,,,,,,,,,,,,,,,,,,,,,,,,,,,,,0,0,0,0,0,0,0,0,0,0,0,0,0,0,0,0,0,0,0,0,0,0,0,0,0,0,0,0,0,28,2,0
j6LvcZdFY2i16FdTGvtINA,Las Vegas,"4080 W Desert Inn Rd Westside Las Vegas, NV 89102",36.1306312,-115.1938929,United Auto Glass,44,5.0,NV,business,,,08:00,17:00,08:00,17:00,08:00,17:00,08:00,17:00,08:00,17:00,,,,,,,,,,,,,,,,,,,,,,,,,,,,,,,,,,,,0,0,0,0,0,0,0,0,0,0,0,0,0,0,0,0,0,0,0,0,0,0,0,0,0,0,0,0,0,32,6,0
pzZzHAIHE1WWdk0GmoriPQ,Las Vegas,"3819 W Sahara Avenue Westside Las Vegas, NV 89102",36.1439411,-115.1926233,Eye Glass World #18,4,2.5,NV,business,,,,,,,,,,,,,,,,,,,,,,,,,,,,,,,,,,,,,,,,,,,,,,,,0,0,0,0,0,0,0,0,0,0,0,0,0,0,0,0,0,0,0,0,0,0,0,0,0,0,0,0,0,0,0,0
HRW4M0m9fUmNPyk4bV0gxA,Las Vegas,"2404 Western Ave Las Vegas, NV 89102",36.1453189,-115.16725190000001,Flora Couture by Floral 2000,28,4.5,NV,business,,,08:00,17:00,08:00,17:00,08:00,17:00,08:00,17:00,08:00,17:00,08:00,14:00,,,,3.0,1.0,,,,,,,,1.0,,,,,,,,,,1.0,0.0,1.0,0.0,0.0,,,,,,,0,0,0,0,0,0,0,0,0,0,0,0,0,0,0,0,0,0,0,0,0,0,0,0,0,0,0,0,0,12,0,0
cvJDHk1ho0DxaF26etcr8Q,Las Vegas,"2580 S Decatur Blvd Westside Las Vegas, NV 89102",36.142934999999994,-115.207747,"Oiga, Mire, Vea Colombian Cuisine",67,3.5,NV,business,10:00,23:00,10:00,21:00,10:00,21:00,10:00,21:00,10:00,21:00,10:00,21:00,10:00,17:00,very_loud,casual,full_bar,2.0,0.0,0.0,,1.0,1.0,1.0,1.0,1.0,1.0,1.0,no,,,,,,1.0,,0.0,0.0,1.0,0.0,0.0,,,,,,,1,0,0,0,0,0,0,0,0,0,0,0,0,0,0,0,0,0,0,0,0,0,0,0,0,0,0,0,0,119,28,0
JdoyAHYWnfOgKTdV5HRS5w,Las Vegas,"3700 Meade Ave Westside Las Vegas, NV 89102",36.13641810000001,-115.1899737,The Water Heater Man,13,4.0,NV,business,,,07:00,16:00,07:00,16:00,07:00,16:00,07:00,16:00,07:00,16:00,,,,,,,,,,,,,,,1.0,,,,,,,,,,,,,,,,,,,,,0,0,0,0,0,0,0,0,0,0,0,0,0,0,0,0,0,0,0,0,0,0,0,0,0,0,0,0,0,0,0,0
6Ick2Pmt2DVQ6a5ynrlxDQ,Las Vegas,"4651 Spring Mountain Rd Chinatown Las Vegas, NV 89102",36.125882,-115.204044,Asian American Realty,4,1.0,NV,business,,,,,,,,,,,,,,,,,,,,,,,,,,,,,,,,,,,,,,,,,,,,,,,,0,0,0,0,0,0,0,0,0,0,0,0,0,0,0,0,0,0,0,0,0,0,0,0,0,0,0,0,0,0,0,0
HSMCMlTyRiyW2Pj6hpoiFQ,Las Vegas,"4215 Spring Mountain Rd Ste B110 Chinatown Las Vegas, NV 89102",36.125380799999995,-115.1959803,Beaut Point Hair Studio,16,4.0,NV,business,10:00,20:00,10:00,20:00,10:00,20:00,10:00,20:00,10:00,20:00,10:00,20:00,10:00,20:00,,,,2.0,,,,,,,,1.0,1.0,,,,,,,,,,0.0,0.0,1.0,0.0,0.0,,,,,,,0,0,0,0,0,0,0,0,0,0,0,0,0,0,0,0,0,0,0,0,0,0,0,0,0,0,0,0,0,90,5,0
10UcN8MF1kQiyTJAfHKvfQ,Las Vegas,"3360 W Sahara Ave Ste 110 Westside Las Vegas, NV 89102",36.1455961,-115.18758799999999,Courtyard Deli,3,5.0,NV,business,,,09:00,15:00,09:00,15:00,09:00,15:00,09:00,15:00,09:00,15:00,,,quiet,casual,none,1.0,1.0,1.0,,1.0,0.0,1.0,1.0,1.0,1.0,0.0,no,,,,,,1.0,,0.0,0.0,0.0,0.0,0.0,,,,,,,1,1,0,0,0,0,0,0,0,0,0,1,0,0,0,0,0,0,0,0,0,0,0,0,0,0,0,0,0,7,0,0
lKOlHuV3YniBFbtgLm3cuQ,Las Vegas,"2605 S Decatur Blvd Ste 213 Westside Las Vegas, NV 89102",36.142663,-115.2094889,Asian Massage,3,3.5,NV,business,11:00,22:00,10:00,22:00,10:00,22:00,10:00,22:00,10:00,22:00,10:00,22:00,10:00,22:00,,,,1.0,,,,,,,,,1.0,,,,,,,,,,0.0,0.0,0.0,0.0,0.0,,,,,,,0,0,0,0,0,0,0,0,0,0,0,0,0,0,0,0,0,0,0,0,0,0,0,0,0,0,0,0,0,0,0,0
KTr0m5kWYddzF5HoIM3fhg,Las Vegas,"3630 W Sahara Avenue Westside Las Vegas, NV 89102",36.145868,-115.189871,Office Depot,3,2.5,NV,business,,,,,,,,,,,,,,,,,,2.0,,,,,,,,,1.0,,,,,,,,,,0.0,0.0,1.0,0.0,0.0,,,,,,,0,0,0,0,0,0,0,0,0,0,0,0,0,0,0,0,0,0,0,0,0,0,0,0,0,0,0,0,0,28,3,0
R5e2XWtpa_CA77MIXEyCTg,Las Vegas,"4810 W Desert Inn Rd Westside Las Vegas, NV 89102",36.130334999999995,-115.206002,Subway,6,2.0,NV,business,,,,,,,,,,,,,,,,casual,none,2.0,0.0,0.0,0.0,1.0,0.0,0.0,0.0,1.0,1.0,0.0,,,,,,,1.0,,,,,,,,,,,,,1,1,1,0,0,0,0,0,0,0,0,0,0,0,0,0,0,0,0,0,0,0,0,0,0,0,0,0,0,35,2,0
A1hqUVCcjRJb3PB96QFY0w,Las Vegas,"3631 W Sahara Ave Westside Las Vegas, NV 89102",36.143405,-115.19006499999999,Mariana's Supermarket,33,3.5,NV,business,,,,,,,,,,,,,,,,,,1.0,,,,,,,,,1.0,,,,,,,,,,0.0,0.0,1.0,0.0,0.0,,,,,,,0,0,0,0,0,0,0,1,0,0,0,0,0,0,0,0,0,0,0,0,0,0,0,0,0,0,0,0,0,179,16,0
UIvNWTgvn-y_OvSdgsHDOg,Las Vegas,"5720 S Arville St Ste 119 Las Vegas, NV 89118",36.0863629,-115.199157,Art encounter,6,3.5,NV,business,,,08:30,17:00,08:30,17:00,08:30,17:00,08:30,17:00,08:30,17:00,,,,,,3.0,,,,,,,,1.0,1.0,,,,,,,,,,0.0,0.0,0.0,0.0,0.0,,,,,,,0,0,0,0,0,0,0,0,0,0,0,0,0,0,0,0,0,0,0,0,0,0,0,0,0,0,0,0,0,0,1,0
BH-rSRJjA19QCCJiTO_bUQ,Las Vegas,"3864 W Sahara Ave Westside Las Vegas, NV 89102",36.145191100000005,-115.19259309999998,Food-4 Less,7,3.0,NV,business,,,,,,,,,,,,,,,,,,2.0,,,,,,,,,1.0,,,,,,,,,,0.0,0.0,1.0,0.0,0.0,,,,,,,0,0,0,0,0,0,0,1,0,0,0,0,0,0,0,0,0,0,0,0,0,0,0,0,0,0,0,0,0,62,4,0
CoJivG0wxNIBXyOF7MNqSQ,Las Vegas,"4215 Spring Mountain Rd Chinatown Las Vegas, NV 89102",36.125380799999995,-115.1959803,Pho Vietnam Restaurant,80,3.0,NV,business,09:00,22:00,10:00,22:00,10:00,22:00,10:00,22:00,10:00,22:00,10:00,23:00,09:00,23:00,quiet,casual,beer_and_wine,1.0,0.0,0.0,,1.0,0.0,0.0,1.0,1.0,1.0,0.0,no,,,,,,1.0,,0.0,0.0,1.0,0.0,0.0,,,,,,,1,0,0,0,0,0,0,0,0,0,0,0,0,0,0,0,0,0,0,0,0,0,0,0,1,0,0,0,0,243,17,0
pCobXgTy6DIfBaT4pjlq0w,Las Vegas,"2570 S Decatur Blvd Westside Las Vegas, NV 89102",36.1433258,-115.20631599999999,Einstein Bros,44,3.5,NV,business,,,,,,,,,,,,,,,average,casual,none,1.0,0.0,1.0,,1.0,0.0,1.0,0.0,1.0,1.0,0.0,free,,,,,,1.0,,0.0,0.0,1.0,0.0,0.0,,,,,,,1,1,0,0,0,0,0,0,0,0,0,0,0,0,0,0,0,0,0,0,0,0,0,0,0,0,0,0,0,331,33,0
yRGq9wTIQbMEOLQAoTC5BA,Las Vegas,"3585 South Decatur Blvd Ste C Chinatown Las Vegas, NV 89103",36.1245825,-115.20867129999999,Randall's Fine Art Custom Framing,11,5.0,NV,business,,,09:00,17:30,09:00,17:30,09:00,17:30,09:00,17:30,09:00,17:30,10:00,16:00,,,,2.0,,,,,,,,1.0,1.0,,,,,,,,,,0.0,0.0,0.0,0.0,0.0,,,,,,,0,0,0,0,0,0,0,0,0,0,0,0,0,0,0,0,0,0,0,0,0,0,0,0,0,0,0,0,0,8,0,0
0mXFduFUrlrdzr3F9lYolA,Las Vegas,"3111 S Valley View Blvd, Ste B-115 Westside Las Vegas, NV 89102",36.151081188046,-115.1892,Pioneer Tv Service,7,4.0,NV,business,,,08:00,17:00,08:00,17:00,08:00,17:00,08:00,17:00,08:00,17:00,08:00,17:00,,,,,,,,,,,,,1.0,,,,,,,,,,,,,,,,,,,,,0,0,0,0,0,0,0,0,0,0,0,0,0,0,0,0,0,0,0,0,0,0,0,0,0,0,0,0,0,5,0,0
r1MmMNkS7A0a9UXxXd7qhw,Las Vegas,"4770 Spring Mountain Rd Chinatown Las Vegas, NV 89102",36.1266294,-115.20576059999999,Y2K Nail Salon,21,2.5,NV,business,09:00,20:00,09:00,20:00,09:00,20:00,09:00,20:00,09:00,20:00,09:00,20:00,09:00,20:00,,,,2.0,,,,,,,,,1.0,,,,,,,,,,0.0,0.0,1.0,0.0,0.0,,,,,,,0,0,0,0,0,0,0,0,0,0,0,0,0,0,0,0,0,0,0,0,0,0,0,0,0,0,0,0,0,15,6,0
byGrtBGjCMPqUPZwDsvi0g,Las Vegas,"4029 W Sahara Ave Westside Las Vegas, NV 89102",36.143919,-115.1954442,Bare Essentials-Fantasy Fashions,4,4.0,NV,business,,,11:00,19:00,11:00,19:00,11:00,19:00,11:00,19:00,11:00,19:00,11:00,19:00,,,,2.0,,,,,,,,,1.0,,,,,,,,,,0.0,0.0,1.0,0.0,0.0,,,,,,,0,0,0,0,0,0,0,0,0,0,0,0,0,0,0,0,0,0,0,0,0,0,0,0,0,0,0,0,0,5,0,0
syDsIaNWQDRUwz16cK2sog,Las Vegas,"3435 Lindell Rd Chinatown Las Vegas, NV 89146",36.1268915,-115.2168611,Nevada Chinese Academy,3,5.0,NV,business,,,10:00,18:00,10:00,18:00,10:00,18:00,10:00,18:00,10:00,18:00,,,,,,,,,,,,,,,1.0,,,,,,,,,,,,,,,,,,,,,0,0,0,0,0,0,0,0,0,0,0,0,0,0,0,0,0,0,0,0,0,0,0,0,0,0,0,0,0,5,1,0
9aw9YtjjBZydOdnsCfty0w,Las Vegas,"3872 W Sahara Ave Westside Las Vegas, NV 89102",36.1458072998068,-115.19301794300101,Expo Nails,6,3.0,NV,business,,,,,,,,,,,,,,,,,,1.0,,,,,,,,,1.0,,,,,,,,,,0.0,0.0,0.0,0.0,0.0,,,,,,,0,0,0,0,0,0,0,0,0,0,0,0,0,0,0,0,0,0,0,0,0,0,0,0,0,0,0,0,0,8,3,1
PVzNzypJ2oJfy4O5jtcCsA,Las Vegas,"4580 Spring Mountain Road Chinatown Las Vegas, NV 89102",36.1265835,-115.2036122,All Vegas Properties,4,1.5,NV,business,,,,,,,,,,,,,,,,,,,,,,,,,,,,,,,,,,,,,,,,,,,,,,,,0,0,0,0,0,0,0,0,0,0,0,0,0,0,0,0,0,0,0,0,0,0,0,0,0,0,0,0,0,0,1,0
8J_fUIc_BBKGS0hdBZi_Fg,Las Vegas,"4862 W Desert Inn Rd Westside Las Vegas, NV 89102",36.1299926,-115.2074338,Nail Gossip,12,3.5,NV,business,,,,,,,,,,,,,,,,,,2.0,,,,,,,,,1.0,,,,,,,,,,0.0,0.0,1.0,0.0,0.0,,,,,,,0,0,0,0,0,0,0,0,0,0,0,0,0,0,0,0,0,0,0,0,0,0,0,0,0,0,0,0,0,32,5,0
mEMZ0toavEb4tTsI_73pVQ,Las Vegas,"3296 Meade Ave Westside Las Vegas, NV 89102",36.1366701,-115.1851251,Alchemist Pool Service,20,2.5,NV,business,,,09:00,16:00,09:00,16:00,09:00,16:00,09:00,16:00,08:00,16:00,,,,,,,,,,,,,,,1.0,,,,,,,,,,,,,,,,,,,,,0,0,0,0,0,0,0,0,0,0,0,0,0,0,0,0,0,0,0,0,0,0,0,0,0,0,0,0,0,0,3,0
qbXEkNp310Mc0CIs0YJdSg,Las Vegas,"4255 Spring Mountain Rd Chinatown Las Vegas, NV 89102",36.1254312,-115.1969657,Sesame House,5,4.0,NV,business,,,,,,,,,,,,,,,,casual,,1.0,,,,,,,,,1.0,,,,,,,,,,,,,,,,,,,,,1,1,0,0,0,0,0,1,0,0,1,0,0,0,0,0,0,0,0,0,0,0,0,0,0,0,0,0,0,0,0,0
wiK7ALuj6WV-OGQVSXg2oQ,Las Vegas,"4840 W Desert Inn Rd Westside Las Vegas, NV 89102",36.1313165836364,-115.20651848381,Smith's Food & Drug Centers,21,3.0,NV,business,06:00,00:00,06:00,00:00,06:00,00:00,06:00,00:00,06:00,00:00,06:00,00:00,06:00,00:00,,,,2.0,,,,,,,,,1.0,,,,,,,,,,0.0,0.0,1.0,0.0,0.0,,,,,,,0,0,0,0,0,0,0,1,0,0,0,0,0,0,0,0,0,0,0,0,0,0,0,0,0,0,0,0,0,218,8,0
V8id7mkt3nJYOD_HthEn1w,Las Vegas,"3886 W Sahara Ave Westside Las Vegas, NV 89102",36.145191100000005,-115.19259309999998,China Joe's,6,3.0,NV,business,11:00,21:30,11:00,21:30,11:00,21:30,11:00,21:30,11:00,21:30,11:00,21:30,11:00,21:30,quiet,casual,none,2.0,1.0,0.0,,0.0,0.0,0.0,0.0,0.0,1.0,0.0,no,,,,,,1.0,,0.0,0.0,0.0,0.0,0.0,,,,,,,1,0,0,0,0,0,0,0,0,0,1,0,0,0,0,0,0,0,0,0,0,0,0,0,0,0,0,0,0,0,2,0
JgpKLikZPbbXYPtILy3-wg,Las Vegas,"3111 S Valley View Blvd Westside Las Vegas, NV 89102",36.1318533,-115.19206799999999,Las Pupusas Restaurant,52,3.5,NV,business,,,,,,,,,,,,,,,average,casual,beer_and_wine,1.0,0.0,0.0,,1.0,1.0,1.0,1.0,1.0,1.0,0.0,no,,,,,,1.0,,0.0,0.0,1.0,0.0,0.0,,,,,,,1,0,0,0,0,0,1,0,0,0,0,0,0,0,0,0,0,0,0,0,0,0,0,0,0,0,0,0,0,182,25,1
Sx0-lsfTkzQ7r1gxPq-C8Q,Las Vegas,"2530 S Decatur Blvd Westside Las Vegas, NV 89102",36.1440239090338,-115.20705725258101,Starbucks,40,3.5,NV,business,05:30,22:00,05:00,22:00,05:00,22:00,05:00,22:00,05:00,22:00,05:00,22:00,05:00,22:00,,,,1.0,,1.0,,,,,,,1.0,,free,,,,,,,,0.0,0.0,1.0,0.0,0.0,,,,,,,0,0,0,0,0,0,0,1,0,0,0,0,0,0,0,0,0,0,0,0,0,0,0,0,0,0,0,0,0,993,43,0
9-O8qKGQQCYXdBlj4iv7bw,Las Vegas,"2400 W. Sahara Ave. Las Vegas, NV 89102",36.144676000000004,-115.17504129999999,Romano's Macaroni Grill,89,3.0,NV,business,11:00,22:00,11:00,22:00,11:00,22:00,11:00,22:00,11:00,22:00,11:00,23:00,11:00,23:00,average,casual,full_bar,2.0,0.0,0.0,,1.0,0.0,1.0,1.0,1.0,1.0,1.0,no,,,,,,1.0,,0.0,0.0,1.0,0.0,0.0,,,,,,,1,0,0,0,0,0,0,0,0,0,0,1,0,0,0,0,0,0,0,0,0,0,0,0,0,0,0,0,0,330,19,0
PsOvURXqpy8iZX2J8y429A,Las Vegas,"2610 W. Sahara Ave. Las Vegas, NV 89102",36.144997,-115.175625,Landry's Seafood,163,3.0,NV,business,11:30,21:30,11:00,21:30,11:00,21:30,11:00,21:30,11:00,21:30,11:00,22:00,11:00,22:00,average,casual,full_bar,2.0,0.0,0.0,,1.0,1.0,0.0,1.0,1.0,1.0,1.0,free,,,,,,1.0,,0.0,0.0,1.0,0.0,0.0,,,,,,,1,0,0,0,0,0,0,0,0,0,0,0,0,0,0,0,0,0,0,0,1,0,0,0,0,0,0,0,0,433,58,0
pLGt159RKrwGNOG4ASLAkw,Las Vegas,"7280 W Lake Mead Blvd Las Vegas, NV 89102",36.1970917,-115.250169,Mountain America Credit Union,5,3.0,NV,business,,,09:00,18:00,09:00,18:00,09:00,18:00,09:00,18:00,09:00,18:00,,,,,,,,,,,,,,,,,,,,,,,,,,,,,,,,,,,,0,0,0,0,0,0,0,0,0,0,0,0,0,0,0,0,0,0,0,0,0,0,0,0,0,0,0,0,0,15,2,0
ntUjIM6MnYSJJxHdCBnqjA,Las Vegas,"1701 W Charleston Boulevard Las Vegas, NV 89102",36.1578302,-115.16377820000001,Harmony Healthcare,11,1.5,NV,business,,,,,,,,,,,,,,,,,,,,,,,,,,,,,,,,,,,,,,,,,,,,,,,,0,0,0,0,0,0,0,0,0,0,0,0,0,0,0,0,0,0,0,0,0,0,0,0,0,0,0,0,0,8,2,0
9jBIXfaUR-samqU8-iNpeA,Las Vegas,"2800 W Sahara Ave Westside Las Vegas, NV 89102",36.1450464,-115.1795317,Cellini's,3,5.0,NV,business,11:30,15:30,09:30,18:30,09:30,18:30,09:30,18:30,09:30,18:30,09:30,16:00,,,,,,,,,,,,,,,,,,,,,,,,,,,,,,,,,,,,0,0,0,0,0,0,0,0,0,0,0,0,0,0,0,0,0,0,0,0,0,0,0,0,0,0,0,0,0,0,0,0
Yq8LiVymGA7vBpGCQuDfRw,Las Vegas,"4745 Spring Mountain Rd Chinatown Las Vegas, NV 89102",36.1249835,-115.20643059999999,Pho So 1,701,3.5,NV,business,09:00,03:00,09:00,03:00,09:00,03:00,09:00,03:00,09:00,03:00,09:00,03:00,09:00,03:00,average,casual,beer_and_wine,1.0,0.0,0.0,,1.0,0.0,0.0,1.0,1.0,1.0,0.0,no,,,,,,1.0,,0.0,0.0,1.0,0.0,0.0,,,,,,,1,0,0,0,0,0,0,0,0,0,0,0,0,0,0,0,0,0,0,0,0,0,0,0,1,0,0,0,0,3804,303,3
nzQJqTrcazg23EjdaHgqDg,Las Vegas,"4355 Spring Mountain Rd Chinatown Las Vegas, NV 89102",36.125908,-115.19790400000001,Pho Nhu  Y,7,2.5,NV,business,,,,,,,,,,,,,,,average,casual,none,1.0,0.0,0.0,,1.0,1.0,1.0,1.0,1.0,,0.0,,,,,,,1.0,,0.0,0.0,1.0,0.0,0.0,,,,,,,1,0,0,0,0,0,0,0,0,0,0,0,0,0,0,0,0,0,0,0,0,0,0,0,1,0,0,0,0,6,1,0
YwUTwzYD7G25DIICSVqFBQ,Las Vegas,"4120 Spring Mountain Rd Chinatown Las Vegas, NV 89102",36.126894,-115.195024,Play It Again Sam,22,3.5,NV,business,,,,,,,,,,,,,,,very_loud,casual,full_bar,1.0,0.0,0.0,,1.0,1.0,0.0,,1.0,1.0,1.0,,1.0,1.0,yes,,,0.0,0.0,0.0,0.0,1.0,0.0,0.0,1.0,0.0,0.0,0.0,0.0,0.0,0,0,0,1,0,1,0,0,0,0,0,0,0,0,0,0,0,0,0,0,0,0,0,0,0,0,0,0,0,45,3,0
UKKz4HdQC0aH9j5lLi4u8Q,Las Vegas,"3920 Spring Mountain Rd Chinatown Las Vegas, NV 89102",36.126761200000004,-115.192874,Tofu Hut,474,3.5,NV,business,11:00,02:00,11:00,02:00,11:00,02:00,11:00,02:00,11:00,02:00,11:00,02:00,11:00,02:00,average,casual,beer_and_wine,2.0,0.0,0.0,,1.0,1.0,0.0,1.0,1.0,1.0,0.0,no,,,,0.0,0.0,0.0,,0.0,0.0,1.0,0.0,0.0,,,,,,,1,0,0,0,0,0,0,0,0,0,0,0,0,0,0,0,0,1,0,0,0,0,0,1,0,0,0,0,0,3207,233,5
TJPoYV0ChQ4yqBJbNTpyDQ,Las Vegas,"3130 E Sunset Rd Ste B Southeast Las Vegas, NV 89120",36.071946399999995,-115.1067983,Skin Factory Tattoo,64,4.5,NV,business,12:00,20:00,12:00,20:00,12:00,20:00,12:00,20:00,12:00,20:00,12:00,22:00,12:00,22:00,,,,2.0,,,,,,,,,1.0,,,,,,,,,,0.0,0.0,1.0,0.0,0.0,,,,,,,0,0,0,0,0,0,0,0,0,0,0,0,0,0,0,0,0,0,0,0,0,0,0,0,0,0,0,0,0,90,6,0
A2aVN_Yw3xDz4x7gGtmYog,Las Vegas,"2401 S Valley View Blvd Westside Las Vegas, NV 89102",36.1462824,-115.19050349999999,Tacos El Burrito Loco,11,3.5,NV,business,,,,,,,,,,,,,,,quiet,casual,none,1.0,0.0,1.0,,1.0,1.0,1.0,0.0,1.0,1.0,0.0,no,,,,,,1.0,,0.0,0.0,0.0,0.0,0.0,,,,,,,1,0,0,0,0,0,1,0,0,0,0,0,0,0,0,0,0,0,0,0,0,0,0,0,0,0,0,0,0,35,4,1
wGYrthLz-h4KQEaGSbubeQ,Las Vegas,"3375 S Decatur Blvd Ste 15 Westside Las Vegas, NV 89102",36.12872,-115.20893670000001,Du Barry Fashions,11,4.0,NV,business,10:00,19:00,10:00,19:00,10:00,19:00,10:00,19:00,10:00,19:00,10:00,19:00,10:00,19:00,,,,2.0,,,,,,,,,1.0,,,,,,,,,,0.0,0.0,0.0,0.0,0.0,,,,,,,0,0,0,0,0,0,0,0,0,0,0,0,0,0,0,0,0,0,0,0,0,0,0,0,0,0,0,0,0,16,4,0
eY9vkTVrr6TA1f--4Opi_g,Las Vegas,"3270 S Valley View Boulevard Westside Las Vegas, NV 89102",36.1306041,-115.18933020000001,SuperPawn,3,1.5,NV,business,12:00,17:00,09:00,20:00,09:00,20:00,09:00,20:00,09:00,20:00,09:00,20:00,09:00,20:00,,,,2.0,,,,,,,,,1.0,,,,,,,,,,0.0,0.0,0.0,0.0,0.0,,,,,,,0,0,0,0,0,0,0,0,0,0,0,0,0,0,0,0,0,0,0,0,0,0,0,0,0,0,0,0,0,14,0,0
210DZVpFHKSnvNFTYmwyLg,Las Vegas,"3900 Spring Mountain Rd Ste 4 Suite 101 Chinatown Las Vegas, NV 89102",36.12691470000001,-115.1924195,Racers Edge Performance,4,4.0,NV,business,,,,,,,,,,,,,,,,,,,,,,,,,,,,,,,,,,,,,,,,,,,,,,,,0,0,0,0,0,0,0,0,0,0,0,0,0,0,0,0,0,0,0,0,0,0,0,0,0,0,0,0,0,0,0,0
ShQyyoanZQJFpixxM1sFjQ,Las Vegas,"3417 S Jones Blvd Ste F Chinatown Las Vegas, NV 89146",36.12662529999999,-115.22558740000001,Sunrise Dental,5,4.5,NV,business,,,08:00,17:00,08:00,17:00,08:00,17:00,08:00,17:00,08:00,15:00,08:00,13:00,,,,,,,,,,,,,,,,,,,,,,,,,,,,,,,,,,0,0,0,0,0,0,0,0,0,0,0,0,0,0,0,0,0,0,0,0,0,0,0,0,0,0,0,0,0,19,3,0
euGwFsKJAkkO7kdgOkT9qg,Las Vegas,"2101 S Decatur Blvd Westside Las Vegas, NV 89102",36.148658399999995,-115.20981289999999,Dotty's #7,6,2.5,NV,business,,,,,,,,,,,,,,,,casual,full_bar,2.0,0.0,0.0,,0.0,,,0.0,0.0,1.0,0.0,,,,,,,0.0,,,,,,,,,,,,,1,0,0,0,0,0,0,0,0,0,0,0,0,0,0,0,0,0,0,0,0,0,0,0,0,0,0,0,0,12,4,0
IALHPP1RDtpXV9KnUM0EQQ,Las Vegas,"4604 W Sahara Ave Ste 10 Westside Las Vegas, NV 89102",36.1449549209792,-115.204612862008,PT's,14,3.5,NV,business,00:00,00:00,00:00,00:00,00:00,00:00,00:00,00:00,00:00,00:00,00:00,00:00,00:00,00:00,average,casual,full_bar,2.0,0.0,0.0,,1.0,1.0,0.0,0.0,0.0,1.0,0.0,free,1.0,0.0,yes,,,0.0,0.0,0.0,0.0,0.0,0.0,0.0,1.0,0.0,0.0,0.0,0.0,1.0,1,0,0,1,0,1,0,0,0,0,0,0,1,0,0,0,0,0,0,0,0,0,0,0,0,0,0,0,0,98,9,0
X7D1HiOvHUUaMIDvSQlY-g,Las Vegas,"2323 S Decatur Blvd Westside Las Vegas, NV 89102",36.145489399999995,-115.20761999999999,Borders Book Shop & Cafe,6,3.5,NV,business,,,,,,,,,,,,,,,,,,1.0,,,,,,,,,1.0,,,,,,,,,,0.0,0.0,1.0,0.0,0.0,,,,,,,0,0,0,0,0,0,0,0,0,0,0,0,0,0,0,0,0,0,0,0,0,0,0,0,0,0,0,0,0,34,15,0
-FZJWzoQh1-VyvJAFBoI4w,Las Vegas,"4700 W Sahara Ave Westside Las Vegas, NV 89102",36.1476126,-115.20587549999999,Sheplers Western Wear,6,3.0,NV,business,11:00,18:00,10:00,20:00,10:00,20:00,10:00,20:00,10:00,20:00,10:00,20:00,10:00,20:00,,,,,,,,,,,,,1.0,,,,,,,,,,0.0,0.0,0.0,0.0,0.0,,,,,,,0,0,0,0,0,0,0,0,0,0,0,0,0,0,0,0,0,0,0,0,0,0,0,0,0,0,0,0,0,25,5,0
bunbR12yNpvcgZt-yk5PXQ,Las Vegas,"4241 W Charleston Blvd Westside Las Vegas, NV 89102",36.1586456,-115.1984489,Velvet Underground,24,4.0,NV,business,,,12:00,18:00,12:00,18:00,12:00,18:00,12:00,18:00,12:00,18:00,12:00,17:00,,,,1.0,,,,,,,,,0.0,,,,,,,,,,0.0,0.0,1.0,0.0,0.0,,,,,,,0,0,0,0,0,0,0,0,0,0,0,0,0,0,0,0,0,0,0,0,0,0,0,0,0,0,0,0,0,27,6,0
X_k99Y4B_eJavSOhg-fmRg,Las Vegas,"4760 W Sahara Ave Ste 26 Westside Las Vegas, NV 89102",36.1461884369895,-115.207293509279,Avis Rent A Car,11,4.5,NV,business,09:00,13:00,08:00,18:00,08:00,18:00,08:00,18:00,08:00,18:00,08:00,18:00,08:00,16:00,,,,,,,,,,,,,,,,,,,,,,,,,,,,,,,,,,0,0,0,0,0,0,0,0,0,0,0,0,0,0,0,0,0,0,0,0,0,0,0,0,0,0,0,0,0,3,1,0
xuomZFq8coa2Mhe08ya4Sw,Las Vegas,"4100 W Charleston Boulevard Westside Las Vegas, NV 89102",36.159543,-115.196056,Las Vegas Elks Lodge No 1468,3,4.5,NV,business,,,,,,,,,,,,,,,,,,,,,,,,,,1.0,,,,,,,,,,,,,,,,,,,,,,0,0,0,0,0,0,0,0,0,0,0,0,0,0,0,0,0,0,0,0,0,0,0,0,0,0,0,0,0,19,5,0
VKZt8vYRoXXyyVyYg5wkEw,Las Vegas,"3100 W Charleston Blvd Ste 205 Westside Las Vegas, NV 89102",36.1592464,-115.183908,"Jimenez Francis, MD",3,4.0,NV,business,,,,,,,,,,,,,,,,,,,,,,,,,,,,,,,,,,,,,,,,,,,,,,,,0,0,0,0,0,0,0,0,0,0,0,0,0,0,0,0,0,0,0,0,0,0,0,0,0,0,0,0,0,0,0,0
8CO_pV34XMZm_vOuNl42qg,Las Vegas,"4505 W Charleston Blvd Westside Las Vegas, NV 89102",36.1583021267405,-115.203527212143,Walmart Supercenter,80,2.0,NV,business,06:00,00:00,06:00,00:00,06:00,00:00,06:00,00:00,06:00,00:00,06:00,00:00,06:00,00:00,,,,2.0,,,,,,,,,1.0,,,,,,,,,,0.0,0.0,1.0,0.0,0.0,,,,,,,0,0,0,0,0,0,0,1,0,0,0,0,0,0,0,0,0,0,0,0,0,0,0,0,0,0,0,0,0,1095,66,0
2ckgqtvQaBIYKaGtYFJlBA,Las Vegas,"4610 W Sahara Ave Westside Las Vegas, NV 89102",36.1457028,-115.20487469999999,Vons,3,2.5,NV,business,,,,,,,,,,,,,,,,,,2.0,,,,,,,,,1.0,,,,,,,,,,0.0,0.0,0.0,0.0,0.0,,,,,,,0,0,0,0,0,0,0,1,0,0,0,0,0,0,0,0,0,0,0,0,0,0,0,0,0,0,0,0,0,20,2,0
pth9TxI3Zr1ndSyD7syACg,Las Vegas,"Sahara Pavilion 4760 W Sahara Ave, Ste 6 Westside Las Vegas, NV 89102",36.1464491269181,-115.207311419191,Fancy Nails,28,3.5,NV,business,10:00,17:00,10:00,19:00,10:00,19:00,10:00,19:00,10:00,19:00,10:00,19:00,10:00,19:00,,,,2.0,,,,,,,,,1.0,,,,,,,,,,0.0,0.0,1.0,0.0,0.0,,,,,,,0,0,0,0,0,0,0,0,0,0,0,0,0,0,0,0,0,0,0,0,0,0,0,0,0,0,0,0,0,42,4,0
DGAG6TTNGyziEMdBpKx1yw,Las Vegas,"2820 W Charleston Blvd Ste 6 Westside Las Vegas, NV 89102",36.15938870000001,-115.1805162,Renaissance Health Centre,5,4.0,NV,business,,,08:00,17:00,08:00,17:00,08:00,17:00,08:00,17:00,09:00,13:00,,,,,,,,,,,,,,,,,,,,,,,,,,,,,,,,,,,,0,0,0,0,0,0,0,0,0,0,0,0,0,0,0,0,0,0,0,0,0,0,0,0,0,0,0,0,0,11,0,0
6gzjYGiT6m9Bubu7urS1ug,Las Vegas,"3953 W Charleston Blvd Westside Las Vegas, NV 89102",36.1587599,-115.193453,Vynl Salon,3,5.0,NV,business,,,,,,,,,,,,,,,,,,,,,,,,,,,1.0,,,,,,,,,,0.0,0.0,0.0,0.0,0.0,,,,,,,0,0,0,0,0,0,0,0,0,0,0,0,0,0,0,0,0,0,0,0,0,0,0,0,0,0,0,0,0,0,0,0
utp7eFquKnKitV4lWULGew,Las Vegas,"2005 S Decatur Blvd Westside Las Vegas, NV 89120",36.1494598,-115.2077025,Purrfect Auto Service,15,3.5,NV,business,,,08:00,18:00,08:00,18:00,08:00,18:00,08:00,18:00,08:00,18:00,08:00,18:00,,,,,,,,,,,,,,,,,,,,,,,,,,,,,,,,,,0,0,0,0,0,0,0,0,0,0,0,0,0,0,0,0,0,0,0,0,0,0,0,0,0,0,0,0,0,16,1,0
N2tjtB2hb0rrEQM9503qEg,Las Vegas,"2003 S Decatur Blvd Westside Las Vegas, NV 89102",36.149788799999996,-115.20759550000001,Subway,4,3.5,NV,business,,,,,,,,,,,,,,,average,casual,none,1.0,0.0,0.0,1.0,1.0,0.0,,,1.0,1.0,0.0,no,,,,,,1.0,,,,,,,,,,,,,1,1,1,0,0,0,0,0,0,0,0,0,0,0,0,0,0,0,0,0,0,0,0,0,0,0,0,0,0,22,2,0
LM71VvmoAWDD5z8h7XoVig,Las Vegas,"4604 W Sahara Ave Ste 6 Westside Las Vegas, NV 89102",36.145118,-115.20472,Samosa Factory,152,4.0,NV,business,,,11:30,21:00,11:30,21:00,11:30,21:00,11:30,21:00,11:30,22:00,12:00,22:00,quiet,casual,,2.0,0.0,0.0,,1.0,0.0,0.0,1.0,1.0,1.0,0.0,no,,,,1.0,1.0,1.0,,0.0,0.0,1.0,0.0,0.0,,,,,,,1,0,0,0,0,0,0,0,0,0,0,0,0,0,0,1,0,0,0,0,0,0,0,0,0,0,0,0,1,357,51,0
rSb3jENKs2lPTN_mzxyMog,Las Vegas,"4001 S. Decatur Blvd. Ste 17 Las Vegas, NV 89103",36.1182771,-115.20979840000001,Cookies by Design,12,4.5,NV,business,,,08:00,18:00,08:00,18:00,08:00,18:00,08:00,18:00,08:00,18:00,10:00,16:00,,,,2.0,0.0,,,,,,,,1.0,,,,,,,,,,0.0,0.0,0.0,0.0,0.0,,,,,,,0,0,0,0,0,0,0,1,0,0,0,0,0,0,0,0,0,0,0,0,0,0,0,0,0,0,0,0,0,9,0,0
eK28FYQOkvgiFpQvzvBnCw,Las Vegas,"4469 W Charleston Blvd Westside Las Vegas, NV 89102",36.1589789,-115.20060829999998,Payless,4,3.5,NV,business,,,,,,,,,,,,,,,,,,2.0,,,,,,,,,1.0,,,,,,,,,,0.0,0.0,0.0,0.0,0.0,,,,,,,0,0,0,0,0,0,0,0,0,0,0,0,0,0,0,0,0,0,0,0,0,0,0,0,0,0,0,0,0,15,1,0
s5UmZZhx3WDMob3uayDTzg,Las Vegas,"1291 S Decatur Blvd Ste 160 Westland Fair Westside Las Vegas, NV 89102",36.15594,-115.206698,Supercuts,5,2.0,NV,business,10:00,18:00,09:00,19:00,09:00,19:00,09:00,19:00,09:00,19:00,09:00,19:00,09:00,19:00,,,,1.0,,,,,,,,1.0,1.0,,,,,,,,,,0.0,0.0,0.0,0.0,0.0,,,,,,,0,0,0,0,0,0,0,0,0,0,0,0,0,0,0,0,0,0,0,0,0,0,0,0,0,0,0,0,0,5,1,0
WglCg8Y_RG8EkHMPgPFn2Q,Las Vegas,"4750 W Sahara Ave Ste 13 Westside Las Vegas, NV 89102",36.1494178452585,-115.19297655029301,The Bead Shack,7,3.5,NV,business,,,,,,,,,,,,,,,,,,3.0,,,,,,,,,1.0,,,,,,,,,,0.0,0.0,1.0,0.0,0.0,,,,,,,0,0,0,0,0,0,0,0,0,0,0,0,0,0,0,0,0,0,0,0,0,0,0,0,0,0,0,0,0,0,2,0
pNqHRWlrbh71zbPZNd7_2g,Las Vegas,"4840 Spring Mountain Rd Ste 1 Chinatown Las Vegas, NV 89102",36.1266135,-115.2070496,Rice To-Go,17,3.0,NV,business,,,,,,,,,,,,,,,average,casual,none,1.0,1.0,0.0,,0.0,1.0,1.0,1.0,1.0,1.0,0.0,no,,,,,,1.0,,0.0,0.0,1.0,0.0,0.0,,,,,,,1,0,0,0,0,0,0,0,0,0,1,0,0,0,0,0,0,0,0,0,0,0,0,0,0,0,0,0,0,28,5,0
BuIhInsMXk5-h5EAxz6s9Q,Las Vegas,"2919 S Decatur Boulevard Westside Las Vegas, NV 89102",36.136848,-115.20846,M J Construction Company,5,1.0,NV,business,,,,,,,,,,,,,,,,,,,,,,,,,,,,,,,,,,,,,,,,,,,,,,,,0,0,0,0,0,0,0,0,0,0,0,0,0,0,0,0,0,0,0,0,0,0,0,0,0,0,0,0,0,0,0,0
jHuomyOB5lXpBcPOzZEMPg,Las Vegas,"3455 Polaris Ave Ste 1 Chinatown Las Vegas, NV 89102",36.1273414,-115.1858929,Dun Rite Auto Body,6,3.5,NV,business,,,09:00,17:00,09:00,17:00,09:00,17:00,09:00,17:00,09:00,17:00,09:00,12:00,,,,,,,,,,,,,,,,,,,,,,,,,,,,,,,,,,0,0,0,0,0,0,0,0,0,0,0,0,0,0,0,0,0,0,0,0,0,0,0,0,0,0,0,0,0,9,2,0
coSQiP4d1NpDT7-tZq6Elg,Las Vegas,"1238 S Main St Downtown Las Vegas, NV 89104",36.1563929,-115.1537477,Pacific Auto Care,4,5.0,NV,business,,,08:00,18:00,08:00,18:00,08:00,18:00,08:00,18:00,08:00,18:00,08:00,16:00,,,,,,,,,,,,,,,,,,,,,,,,,,,,,,,,,,0,0,0,0,0,0,0,0,0,0,0,0,0,0,0,0,0,0,0,0,0,0,0,0,0,0,0,0,0,0,1,0
v8_zXEikdXw_HzIA1Jm1qQ,Las Vegas,"5060 S Fort Apache Rd Ste 150 Spring Valley Las Vegas, NV 89147",36.0966089698819,-115.296750383759,Jewelry City,18,4.5,NV,business,09:00,20:00,09:00,21:00,09:00,21:00,09:00,21:00,09:00,21:00,09:00,21:00,09:00,21:00,,,,3.0,,,,,,,,,1.0,,,,,,,,,,0.0,1.0,1.0,1.0,0.0,,,,,,,0,0,0,0,0,0,0,0,0,0,0,0,0,0,0,0,0,0,0,0,0,0,0,0,0,0,0,0,0,11,5,0
8xFUJNbJYtoR-JvF-sN4bw,Las Vegas,"2902 Lake E Dr The Lakes Las Vegas, NV 89117",36.1391641,-115.2841632,Always & Forever Weddings and Receptions,29,4.0,NV,business,08:00,19:00,08:00,19:00,08:00,19:00,08:00,19:00,08:00,19:00,08:00,19:00,08:00,19:00,,,,,,,,,,,,,1.0,,,,,,,,,,,,,,,,,,,,,0,0,0,0,0,0,0,0,0,0,0,0,0,0,0,0,0,0,0,0,0,0,0,0,0,0,0,0,0,11,4,0
g9kw2NbnhmNU8FQ7scYLBQ,Las Vegas,"4080 W Desert Inn Rd Ste W102 Westside Las Vegas, NV 89102",36.1301936,-115.19436950000001,Escape Eagles,9,4.5,NV,business,08:00,18:00,08:00,18:00,08:00,18:00,08:00,18:00,08:00,18:00,08:00,18:00,08:00,18:00,,,,,,,,,,,,,,,,,,,,,,,,,,,,,,,,,,0,0,0,0,0,0,0,0,0,0,0,0,0,0,0,0,0,0,0,0,0,0,0,0,0,0,0,0,0,0,0,0
_GLmC_CHhyHe-10tvgll0g,Las Vegas,"950 S Durango Dr Ste 160 Westside Las Vegas, NV 89145",36.1606563,-115.27949640000001,Calico,3,5.0,NV,business,,,10:00,17:00,10:00,17:00,10:00,17:00,10:00,17:00,10:00,17:00,10:00,17:00,,,,3.0,,,,,,,,,,,,,,,,,,,0.0,0.0,0.0,0.0,0.0,,,,,,,0,0,0,0,0,0,0,0,0,0,0,0,0,0,0,0,0,0,0,0,0,0,0,0,0,0,0,0,0,3,0,0
idvjjh3yCDu7Hupzl89iQw,Las Vegas,"4001 W Sahara Ave Westside Las Vegas, NV 89102",36.144081400000005,-115.1943476,Wienerschnitzel,3,1.0,NV,business,,,,,,,,,,,,,,,,,,,,,,,,,,,,,,,,,,,,,,,,,,,,,,,,1,0,1,0,0,0,0,0,0,0,0,0,0,0,0,0,0,0,0,0,0,0,0,0,0,0,0,0,0,0,1,0
SWP29WtbTTkAA_QRbQ6suQ,Las Vegas,"3466 S Decatur Blvd Ste C Chinatown Las Vegas, NV 89102",36.12682720000001,-115.2075436,Mrs. Williams Bakery,18,4.5,NV,business,,,09:00,17:00,09:00,17:00,09:00,17:00,09:00,17:00,09:00,17:00,09:00,17:00,,,,1.0,0.0,,,,,,,,1.0,,,,,,,,,,0.0,0.0,1.0,0.0,0.0,,,,,,,0,0,0,0,0,0,0,1,0,0,0,0,0,0,0,0,0,0,0,0,0,0,0,0,0,0,0,0,0,32,5,0
74qKQhLjGbXUOm6KM4aN2g,Las Vegas,"3455 S Decatur Blvd Chinatown Las Vegas, NV 89102",36.1266042,-115.20871570000001,Autozone,24,3.0,NV,business,,,,,,,,,,,,,,,,,,,,,,,,,,,,,,,,,,,,,,,,,,,,,,,,0,0,0,0,0,0,0,0,0,0,0,0,0,0,0,0,0,0,0,0,0,0,0,0,0,0,0,0,0,103,12,0
Xwjy5BwR5FiLlvGBBW1Wtw,Las Vegas,"4821 Spring Mountain Rd Chinatown Las Vegas, NV 89102",36.1262617,-115.20708940000002,Dotty's,4,3.5,NV,business,,,,,,,,,,,,,,,,,,,,,,,,,,,,,,,,,,,,,,,,,,,,,,,,0,0,0,0,0,0,0,0,0,0,0,0,0,0,0,0,0,0,0,0,0,0,0,0,0,0,0,0,0,8,2,0
4ZvKzCztAup-47GulcWtlA,Las Vegas,"4601 W Sahara Avenue Westside Las Vegas, NV 89102",36.1435479,-115.2038659,New India Market,6,2.5,NV,business,,,,,,,,,,,,,,,,,,3.0,,,,,,,,,1.0,,,,,,,,,,0.0,0.0,0.0,0.0,0.0,,,,,,,0,0,0,0,0,0,0,1,0,0,0,0,0,0,0,0,0,0,0,0,0,0,0,0,0,0,0,0,0,5,1,0
yY1RTH4DgbZqFeir48YCDQ,Las Vegas,"2520 Arville St Westside Las Vegas, NV 89102",36.1437684,-115.2002267,7-Eleven Bar,5,3.0,NV,business,,,,,,,,,,,,,,,,,,1.0,,,,,,,,,1.0,,,,,,,,,,0.0,0.0,0.0,0.0,0.0,,,,,,,0,0,0,1,0,1,0,0,0,0,0,0,0,0,0,0,0,0,0,0,0,0,0,0,0,0,0,0,0,12,4,0
DIolCH_Wul8bCDW9gHtNwg,Las Vegas,"4584 Spring Mountain Rd Chinatown Las Vegas, NV 89102",36.126661999999996,-115.203477,Rose's Cleaners and Alterations,35,4.5,NV,business,,,08:00,19:00,08:00,19:00,08:00,19:00,08:00,19:00,08:00,19:00,09:00,18:00,,,,2.0,,,,,,,,,1.0,,no,,,,,,,,0.0,0.0,1.0,0.0,0.0,,,,,,,0,0,0,0,0,0,0,0,0,0,0,0,0,0,0,0,0,0,0,0,0,0,0,0,0,0,0,0,0,59,10,0
nqT92s6K0jWXfo9Y54_N6A,Las Vegas,"4251 W Sahara Ave Westside Las Vegas, NV 89102",36.144051,-115.198702,Wet Lace Custom Design Swimwear & Apparel,6,4.5,NV,business,12:00,17:00,10:00,19:00,10:00,19:00,10:00,19:00,10:00,19:00,10:00,19:00,10:00,19:00,,,,2.0,,,,,,,,,1.0,,,,,,,,,,0.0,0.0,0.0,0.0,0.0,,,,,,,0,0,0,0,0,0,0,0,0,0,0,0,0,0,0,0,0,0,0,0,0,0,0,0,0,0,0,0,0,7,2,0
Os9S1xiYFDDsx1mS9OkkTg,Las Vegas,"2909 S Decatur Blvd Westside Las Vegas, NV 89102",36.137031,-115.20846200000001,Wax Trax Records,48,2.5,NV,business,11:00,14:00,11:00,16:00,11:00,16:00,11:00,16:00,11:00,16:00,11:00,16:00,11:00,16:00,,,,4.0,,,,,,,,,1.0,,,,,,,,,,0.0,0.0,1.0,0.0,0.0,,,,,,,0,0,0,0,0,0,0,0,0,0,0,0,0,0,0,0,0,0,0,0,0,0,0,0,0,0,0,0,0,9,6,0
i-2dFd5Xi85owBOiaG1M4Q,Las Vegas,"2683 S Decatur Blvd Westside Las Vegas, NV 89102",36.141894087195396,-115.20827740430799,Shelter Cove Apts,7,2.0,NV,business,,,,,,,,,,,,,,,,,,,,,,,,,,,1.0,,,,,,,,,,,,,,,,,,,,,0,0,0,0,0,0,0,0,0,0,0,0,0,0,0,0,0,0,0,0,0,0,0,0,0,0,0,0,0,0,0,0
vLMFwcFfA2JyFVMDrcFo1g,Las Vegas,"2721 W Sahara Ave Westside Las Vegas, NV 89102",36.143859899999995,-115.17893600000001,Shilla Korean BBQ,46,3.5,NV,business,11:00,00:00,11:00,00:00,11:00,00:00,11:00,00:00,11:00,00:00,11:00,00:00,11:00,00:00,average,casual,beer_and_wine,2.0,0.0,0.0,,1.0,0.0,1.0,1.0,1.0,1.0,1.0,free,,,,,,1.0,,0.0,0.0,1.0,0.0,0.0,,,,,,,1,0,0,0,0,0,0,0,0,0,0,0,0,0,0,0,0,1,0,0,0,0,0,1,0,0,0,0,0,76,10,2
ByJioN1ISBWpUSAI0rWt2w,Las Vegas,"3601 W Sahara Ave Westside Las Vegas, NV 89102",36.1434033,-115.1891941,Cellar Lounge,34,4.0,NV,business,00:00,00:00,00:00,00:00,00:00,00:00,00:00,00:00,00:00,00:00,00:00,00:00,00:00,00:00,loud,,full_bar,1.0,,1.0,,1.0,1.0,,,0.0,1.0,,,1.0,1.0,yes,,,,0.0,0.0,0.0,1.0,0.0,0.0,0.0,0.0,0.0,1.0,0.0,0.0,0,0,0,1,0,1,0,0,0,0,0,0,0,0,0,0,0,0,0,0,0,0,0,0,0,0,0,0,0,101,17,1
eLy5cl7w804QdaL875KFQA,Las Vegas,"3601 W Sahara Ave Ste 109 Westside Las Vegas, NV 89102",36.1434033,-115.1891941,The Wedding Room,6,5.0,NV,business,,,,,,,,,,,,,,,,,,,,,,,,,,,1.0,,,,,,,,,,,,,,,,,,,,,0,0,0,0,0,0,0,0,0,0,0,0,0,0,0,0,0,0,0,0,0,0,0,0,0,0,0,0,0,0,0,0
3rRV02TF2_FCWDtHmy4o_g,Las Vegas,"3953 Spring Mountain Rd Chinatown Las Vegas, NV 89102",36.1261268,-115.19249939999999,Morning Glory,4,2.5,NV,business,,,,,,,,,,,,,,,,,,2.0,,,,,,,,,1.0,,,,,,,,,,0.0,0.0,0.0,0.0,0.0,,,,,,,0,0,0,0,0,0,0,0,0,0,0,0,0,0,0,0,0,0,0,0,0,0,0,0,0,0,0,0,0,20,3,0
Gv3ivlNN44OJbb1KxVAPRQ,Las Vegas,"2439 S Valley View Blvd Westside Las Vegas, NV 89102",36.145835,-115.1903726,Hawaiian Hale,18,4.0,NV,business,09:00,18:00,,,09:00,19:30,09:00,19:30,09:00,19:30,09:00,20:00,09:00,20:00,average,casual,,1.0,,0.0,,1.0,1.0,,1.0,1.0,1.0,0.0,,,,,,,1.0,,0.0,0.0,1.0,0.0,0.0,,,,,,,1,0,0,0,0,0,0,0,0,0,0,0,0,0,0,0,0,0,0,0,0,0,0,0,0,0,0,0,0,33,11,0
7CbY62TsMEPrmbS9dLBGuw,Las Vegas,"3340 Sirius Ave Westside Las Vegas, NV 89102",36.133887,-115.18555409999999,Desert Outfitters,3,5.0,NV,business,,,10:00,17:00,10:00,17:00,10:00,17:00,10:00,17:00,10:00,17:00,10:00,16:00,,,,2.0,,,,,,,,,1.0,,,,,,,,,,0.0,0.0,1.0,0.0,0.0,,,,,,,0,0,0,0,0,0,0,0,0,0,0,0,0,0,0,0,0,0,0,0,0,0,0,0,0,0,0,0,0,9,1,0
8bn8MWF6jTErHd3zuOhdgg,Las Vegas,"6280 S Valley View Ste 102 Las Vegas, NV 89118",36.07801679999999,-115.1890815,"Pop-A-Lock of Las Vegas, NV",41,4.0,NV,business,00:00,00:00,00:00,00:00,00:00,00:00,00:00,00:00,00:00,00:00,00:00,00:00,00:00,00:00,,,,,,,,,,,,,1.0,,,,,,,,,,,,,,,,,,,,,0,0,0,0,0,0,0,0,0,0,0,0,0,0,0,0,0,0,0,0,0,0,0,0,0,0,0,0,0,0,3,0
90vSSbYO-xh_aS0LomO9kw,Las Vegas,"2401 Paseo Del Prado Las Vegas, NV 89102",36.1457128,-115.17675449999999,Sahara Surgery Center,6,4.0,NV,business,,,,,,,,,,,,,,,,,,,,,,,,,,,,,,,,,,,,,,,,,,,,,,,,0,0,0,0,0,0,0,0,0,0,0,0,0,0,0,0,0,0,0,0,0,0,0,0,0,0,0,0,0,11,2,0
qIDCkDsUcBGJhAZuX9e1VA,Las Vegas,"4725 Spring Mountain Rd Ste F Chinatown Las Vegas, NV 89102",36.1255979,-115.20523100000001,Nails For You,54,3.5,NV,business,11:00,17:00,09:00,19:00,09:00,19:00,09:00,19:00,09:00,19:00,09:00,19:00,09:00,19:00,,,,1.0,,,,,,,,,1.0,,,,,,,,,,0.0,0.0,1.0,0.0,0.0,,,,,,,0,0,0,0,0,0,0,0,0,0,0,0,0,0,0,0,0,0,0,0,0,0,0,0,0,0,0,0,0,99,22,1
4kNuUwXyfeH-E78TsMCuwQ,Las Vegas,"810 S Commerce St Downtown Las Vegas, NV 89106",36.163561082084996,-115.152018070221,Spinetti's Home Gaming Supplies,26,4.5,NV,business,,,09:30,05:30,09:30,05:30,09:30,05:30,09:30,05:30,09:30,05:30,09:30,05:30,,,,2.0,,,,,,,,1.0,1.0,,,,,,,,,,0.0,0.0,1.0,0.0,0.0,,,,,,,0,0,0,0,0,0,0,0,0,0,0,0,0,0,0,0,0,0,0,0,0,0,0,0,0,0,0,0,0,56,5,0
4jxe81SmrVLp_XDUIpXYMg,Las Vegas,"4420 W Sahara Ave Westside Las Vegas, NV 89102",36.1448,-115.20100000000001,KFC,9,2.5,NV,business,10:30,22:30,10:30,22:30,10:30,22:30,10:30,22:30,10:30,22:30,10:30,22:30,10:30,22:30,average,casual,none,1.0,0.0,0.0,1.0,1.0,0.0,1.0,0.0,1.0,1.0,0.0,no,,,,,,1.0,,0.0,0.0,0.0,0.0,0.0,,,,,,,1,0,1,0,0,0,0,0,0,0,0,0,0,0,0,0,0,0,0,0,0,0,0,0,0,0,0,0,0,32,4,0
rxB_HqGbaBVjzBYl_PufOg,Las Vegas,"2600 W Sahara Ave Suite 115 Las Vegas, NV 89102",36.1451859,-115.1766297,Oriental Angels,3,3.5,NV,business,,,,,,,,,,,,,,,,,,2.0,,,,,,,,,1.0,,,,,,,,,,0.0,0.0,0.0,0.0,0.0,,,,,,,0,0,0,0,0,0,0,0,0,0,0,0,0,0,0,0,0,0,0,0,0,0,0,0,0,0,0,0,0,0,0,0
UVZ5auVZrbvgJ0VbWW_P8Q,Las Vegas,"3001 W. Sahara Ave. Westside Las Vegas, NV 89102",36.1439743670324,-115.184268951416,Pizza Hut,22,2.0,NV,business,10:00,23:00,11:00,23:00,11:00,23:00,11:00,23:00,11:00,23:00,11:00,00:00,10:00,00:00,average,casual,none,1.0,1.0,1.0,,1.0,1.0,,1.0,1.0,1.0,0.0,,,,,,,1.0,,0.0,0.0,0.0,0.0,0.0,,,,,,,1,0,0,0,1,0,0,0,0,0,0,0,0,0,0,0,0,0,0,0,0,0,0,0,0,0,0,0,0,38,6,0
SvS58LlrEMHjSwJmpJNKGA,Las Vegas,"2204 W Charleston Blvd Downtown Las Vegas, NV 89102",36.1590906,-115.17210790000001,Jimmy John's,58,3.5,NV,business,10:00,21:00,10:00,21:00,10:00,21:00,10:00,21:00,10:00,21:00,10:00,21:00,10:00,21:00,loud,casual,none,1.0,1.0,0.0,,1.0,0.0,1.0,0.0,1.0,1.0,0.0,no,,,,,,1.0,,0.0,0.0,1.0,0.0,0.0,,,,,,,1,1,0,0,0,0,0,0,0,0,0,0,0,0,0,0,0,0,0,0,0,0,0,0,0,0,0,0,0,242,20,1
RfR5yc4j9coIPBuxRsOW8Q,Las Vegas,"2605 S Decatur Blvd Ste 109 Westside Las Vegas, NV 89102",36.1429701,-115.20935,Aloha Kitchen & Bar,314,3.5,NV,business,08:00,03:00,08:00,03:00,08:00,03:00,08:00,04:00,08:00,04:00,08:00,05:00,08:00,05:00,average,casual,full_bar,1.0,0.0,0.0,,1.0,0.0,1.0,0.0,1.0,1.0,0.0,no,1.0,1.0,outdoor,,0.0,1.0,0.0,0.0,0.0,1.0,0.0,0.0,,1.0,,,,,1,0,0,1,0,1,0,0,0,0,0,0,0,0,0,0,0,0,0,0,0,0,0,0,0,0,0,0,0,2497,207,0
yY5y9PjyPWd-8Pl1XkkBVA,Las Vegas,"1875 S Decatur Blvd Westside Las Vegas, NV 89102",36.15116210000001,-115.20861359999999,The Triple Play,31,4.5,NV,business,00:00,00:00,00:00,00:00,00:00,00:00,00:00,00:00,00:00,00:00,00:00,00:00,00:00,00:00,average,casual,full_bar,2.0,0.0,0.0,0.0,1.0,1.0,0.0,1.0,0.0,1.0,0.0,no,,,,,,1.0,,0.0,0.0,1.0,0.0,0.0,,,,,,,1,0,0,0,0,0,0,0,1,1,0,0,0,0,0,0,0,0,0,0,0,0,0,0,0,0,0,0,0,120,10,0
Vkm6ZWlPhIioFk6xiypSjg,Las Vegas,"4255 Spring Mountain Rd Chinatown Las Vegas, NV 89102",36.1254312,-115.1969657,Chinatown Express Restaurant,7,3.0,NV,business,,,,,,,,,,,,,,,,,,1.0,,,,1.0,1.0,,1.0,,1.0,,,,,,,,1.0,,,,,,,,,,,,,1,0,0,0,0,0,0,0,0,0,1,0,0,0,0,0,0,0,0,0,0,0,0,0,0,0,0,0,0,8,0,0
GxCzUAy4tiyjkr9l8PXQYQ,Las Vegas,"4213 W Sahara Ave Westside Las Vegas, NV 89102",36.144069200000004,-115.19762720000001,Escape Lounge,6,3.0,NV,business,,,,,,,,,,,,,,,loud,,full_bar,2.0,,1.0,,1.0,1.0,,,,1.0,,,1.0,0.0,yes,,,,0.0,0.0,0.0,1.0,0.0,0.0,0.0,,1.0,0.0,0.0,,0,0,0,1,0,1,0,0,0,0,0,0,0,0,0,0,0,0,0,0,0,0,0,0,0,0,0,0,0,39,7,0
4qHd6e7kAL9dszYrQUkjLg,Las Vegas,"2575 S Decatur Blvd Westside Las Vegas, NV 89102",36.143114000000004,-115.208505,Red Robin,6,3.0,NV,business,,,,,,,,,,,,,,,,casual,full_bar,2.0,0.0,1.0,,1.0,,,1.0,1.0,1.0,0.0,,,,,,,1.0,,0.0,0.0,0.0,0.0,0.0,,,,,,,1,0,0,0,0,0,0,0,1,0,0,0,0,0,0,0,0,0,0,0,0,0,0,0,0,0,0,0,0,0,0,0
EbIedJ9Pt_YYh4RxmGVQLA,Las Vegas,"2439 S Valley View Blvd Ste 140 Westside Las Vegas, NV 89102",36.145835,-115.1903726,Estrella Insurance,3,1.0,NV,business,,,09:00,18:00,09:00,18:00,09:00,18:00,09:00,18:00,09:00,18:00,10:00,14:00,,,,,,,,,,,,,,,,,,,,,,,,,,,,,,,,,,0,0,0,0,0,0,0,0,0,0,0,0,0,0,0,0,0,0,0,0,0,0,0,0,0,0,0,0,0,0,0,0
hdEijUNjt5HNFe4CEazYrA,Las Vegas,"3651 W Sahara Ave Westside Las Vegas, NV 89102",36.143994899999996,-115.190377,Rebel Oil,3,3.0,NV,business,,,,,,,,,,,,,,,,,,,,,,,,,,,,,,,,,,,,,,,,,,,,,,,,0,0,0,0,0,0,0,0,0,0,0,0,0,0,0,0,0,0,0,0,0,0,0,0,0,0,0,0,0,31,1,0
rsTMSuMaJBglGZQg5jZYKg,Las Vegas,"1280 S Jones Blvd Westside Las Vegas, NV 89146",36.157286,-115.223854,The Gourmet Cake Factory,12,4.0,NV,business,,,08:00,18:00,08:00,18:00,08:00,18:00,08:00,18:00,08:00,18:00,09:00,17:00,,,,2.0,0.0,,,,,,,,1.0,,,,,,,,,,0.0,0.0,1.0,0.0,0.0,,,,,,,0,0,0,0,0,0,0,1,0,0,0,0,0,0,0,0,0,0,0,0,0,0,0,0,0,0,0,0,0,11,1,0
wCE_iaxkfHpkLEWNPRhtHw,Las Vegas,"3466 S Decatur Blvd Chinatown Las Vegas, NV 89102",36.12682720000001,-115.2075436,Puppy Love,4,3.0,NV,business,,,08:00,17:00,08:00,17:00,08:00,17:00,08:00,17:00,08:00,17:00,08:00,17:00,,,,,,,,,,,,,,,,,,,,,,,,,,,,,,,,,,0,0,0,0,0,0,0,0,0,0,0,0,0,0,0,0,0,0,0,0,0,0,0,0,0,0,0,0,0,0,0,0
g5K3daIw4y5KMj_z1bpXnQ,Las Vegas,"4047 W Desert Inn Rd Westside Las Vegas, NV 89102",36.1296516,-115.19368329999999,Accurate Performance Machine Shop,6,4.5,NV,business,,,07:30,18:30,07:30,18:30,07:30,18:30,07:30,18:30,07:30,18:30,12:00,17:00,,,,,,,,,,,,,,,,,,,,,,,,,,,,,,,,,,0,0,0,0,0,0,0,0,0,0,0,0,0,0,0,0,0,0,0,0,0,0,0,0,0,0,0,0,0,0,1,0
UcRhrJMkOTbCTnm0kshR5g,Las Vegas,"4355 Spring Mountain Rd Chinatown Las Vegas, NV 89102",36.125908,-115.19790400000001,Oriental Massage,3,1.5,NV,business,,,,,,,,,,,,,,,,,,,,,,,,,,,1.0,,,,,,,,,,,,,,,,,,,,,0,0,0,0,0,0,0,0,0,0,0,0,0,0,0,0,0,0,0,0,0,0,0,0,0,0,0,0,0,0,0,0
ATPpSwo9LO03wcBUAVhrjQ,Las Vegas,"Palace Station Hotel & Casino 2416 W Sahara Ave Las Vegas, NV 89102",36.1444404,-115.17443859999999,Jack's Pub,20,2.5,NV,business,09:00,00:00,09:00,00:00,09:00,00:00,09:00,00:00,09:00,00:00,09:00,02:00,09:00,02:00,average,casual,full_bar,2.0,0.0,0.0,,1.0,1.0,0.0,1.0,0.0,1.0,0.0,no,1.0,1.0,yes,,,0.0,0.0,,,,,,0.0,,0.0,1.0,0.0,,0,0,0,1,0,1,0,0,0,0,0,0,0,0,0,0,0,0,0,0,0,0,0,0,0,0,0,0,0,57,6,0
vnKzoJr2C2YOTSQPt_F-tA,Las Vegas,"5350 Spring Mountain Rd Ste 200 Chinatown Las Vegas, NV 89146",36.1262013,-115.2148185,Japanese Car Service,97,4.5,NV,business,,,08:00,18:00,08:00,18:00,08:00,18:00,08:00,18:00,08:00,18:00,,,,,,,,,,,,,,,,,,,,,,,,,,,,,,,,,,,,0,0,0,0,0,0,0,0,0,0,0,0,0,0,0,0,0,0,0,0,0,0,0,0,0,0,0,0,0,81,14,0
1g6EaPHDB9lKbnh1iwKNbQ,Las Vegas,"4550 W Oakey Blvd Westside Las Vegas, NV 89102",36.1520559,-115.20382269999999,Tpm Realty Services,4,2.0,NV,business,,,,,,,,,,,,,,,,,,,,,,,,,,,,,,,,,,,,,,,,,,,,,,,,0,0,0,0,0,0,0,0,0,0,0,0,0,0,0,0,0,0,0,0,0,0,0,0,0,0,0,0,0,0,0,0
ITfN4TeIsm3fk5aPNqYLrw,Las Vegas,"3345 S Decatur Blvd Westside Las Vegas, NV 89102",36.129418,-115.2084872,Habib's Tailoring & Leather Repairs,86,5.0,NV,business,,,09:00,17:00,09:00,17:00,09:00,17:00,09:00,17:00,09:00,17:00,10:00,17:00,,,,,,,,,,,,,1.0,,,,,,,,,,,,,,,,,,,,,0,0,0,0,0,0,0,0,0,0,0,0,0,0,0,0,0,0,0,0,0,0,0,0,0,0,0,0,0,91,11,1
1IkLu6fSkYa0J2IzJvCItA,Las Vegas,"4601 W Sahara Ave Ste H Westside Las Vegas, NV 89102",36.1435479,-115.2038659,Limelite Pro Audio & Dj Supply,7,3.5,NV,business,,,,,,,,,,,,,,,,,,3.0,,,,,,,,,1.0,,,,,,,,,,0.0,0.0,0.0,0.0,0.0,,,,,,,0,0,0,0,0,0,0,0,0,0,0,0,0,0,0,0,0,0,0,0,0,0,0,0,0,0,0,0,0,15,0,0
gd1pgiHT-VEMnolF6aQkGA,Las Vegas,"2750 S Rancho Dr Las Vegas, NV 89102",36.140591,-115.17548700000002,Children's Choice Learning Center at Palace Station,3,2.5,NV,business,,,06:00,18:30,06:00,18:30,06:00,18:30,06:00,18:30,06:00,18:30,,,,,,,,,,,,,,,1.0,,,,,,,,,,,,,,,,,,,,,0,0,0,0,0,0,0,0,0,0,0,0,0,0,0,0,0,0,0,0,0,0,0,0,0,0,0,0,0,0,0,0
J8Y1Zd0IonFb4z4cAkCJZA,Las Vegas,"1931 N Rainbow Blvd Las Vegas, NV 89108",36.193783,-115.242962,Frank's European Service,23,3.0,NV,business,,,07:30,17:30,07:30,17:30,07:30,17:30,07:30,17:30,07:30,17:30,,,,,,,,,,,,,,,,,,,,,,,,,,,,,,,,,,,,0,0,0,0,0,0,0,0,0,0,0,0,0,0,0,0,0,0,0,0,0,0,0,0,0,0,0,0,0,8,1,0
7sw8yneJ0H2CUf-4sBKP0w,Las Vegas,"4880 Spring Mountain Road Chinatown Las Vegas, NV 89102",36.1265403,-115.2076721,Church's Chicken,22,3.5,NV,business,,,,,,,,,,,,,,,average,casual,none,1.0,0.0,0.0,1.0,0.0,0.0,0.0,0.0,1.0,1.0,0.0,no,,,,,,1.0,,0.0,0.0,1.0,0.0,0.0,,,,,,,1,0,1,0,0,0,0,0,0,0,0,0,0,0,0,0,0,0,0,0,0,0,0,0,0,0,0,0,0,122,12,0
EVL7_C4MUoHWvqx9X53XUA,Las Vegas,"2953 W Post Road Southeast Las Vegas, NV 89101",36.07487929999999,-115.1796735,Guardian Heating & Cooling,4,1.5,NV,business,,,,,,,,,,,,,,,,,,,,,,,,,,,,,,,,,,,,,,,,,,,,,,,,0,0,0,0,0,0,0,0,0,0,0,0,0,0,0,0,0,0,0,0,0,0,0,0,0,0,0,0,0,0,1,0
-NXDZfqwfZ9OWba180HqFw,Las Vegas,"3820 W Sahara Ave Westside Las Vegas, NV 89102",36.1447254,-115.19161059999999,Tacos Mexico,69,3.5,NV,business,,,,,,,,,,,,,,,quiet,casual,none,1.0,0.0,1.0,,1.0,1.0,0.0,0.0,1.0,1.0,0.0,no,,,,,,1.0,,0.0,0.0,1.0,0.0,0.0,,,,,,,1,0,0,0,0,0,1,0,0,0,0,0,0,0,0,0,0,0,0,0,0,0,0,0,0,0,0,0,0,185,45,0
oMgp0SW0fwyxT-bj4SEL_g,Las Vegas,"4251 W Sahara Ave Westside Las Vegas, NV 89102",36.144051,-115.198702,Epoy's Filipino Fast Food,5,3.0,NV,business,,,,,,,,,,,,,,,,casual,,1.0,,,,1.0,1.0,,,1.0,1.0,0.0,no,,,,,,1.0,,,,,,,,,,,,,1,0,0,0,0,0,0,0,0,0,0,0,0,0,0,0,0,0,0,0,0,0,0,0,0,0,0,0,0,7,6,0
cZxez9tUb9hqV3KXq5YPAQ,Las Vegas,"2218 Paradise Rd The Strip Las Vegas, NV 89104",36.1446996,-115.1551759,India Oven,105,3.5,NV,business,17:00,22:30,17:00,22:30,17:00,22:30,17:00,22:30,17:00,22:30,17:00,22:30,17:00,22:30,quiet,casual,beer_and_wine,2.0,0.0,0.0,,1.0,0.0,1.0,1.0,1.0,1.0,1.0,no,,,,0.0,,1.0,,0.0,0.0,1.0,0.0,0.0,,,,,,,1,0,0,0,0,0,0,0,0,0,0,0,0,0,0,1,0,0,0,0,0,0,1,0,0,0,0,0,0,118,13,0
3uLj65G-QnXWLTDzcRztAA,Las Vegas,"1811 W Charleston Blvd Ste 2 Downtown Las Vegas, NV 89102",36.158683,-115.1663612,Everything Medical,10,2.5,NV,business,,,09:00,18:00,09:00,18:00,09:00,18:00,09:00,18:00,09:00,18:00,09:00,16:00,,,,2.0,,,,,,,,,1.0,,,,,,,,,,,,,,,,,,,,,0,0,0,0,0,0,0,0,0,0,0,0,0,0,0,0,0,0,0,0,0,0,0,0,0,0,0,0,0,14,2,0
ocZ8pz-8iSz5avdPKnoalA,Las Vegas,"2202 W Charleston Blvd Ste 11 Downtown Las Vegas, NV 89102",36.1596729160581,-115.172003750526,Nozomi Japanese Restaurant,44,3.5,NV,business,,,17:00,21:00,17:00,21:00,17:00,21:00,17:00,21:00,17:00,21:00,17:00,21:00,quiet,casual,beer_and_wine,2.0,0.0,0.0,,1.0,1.0,1.0,1.0,1.0,1.0,1.0,no,,,,,,1.0,,0.0,0.0,1.0,0.0,0.0,,,,,,,1,0,0,0,0,0,0,0,0,0,0,0,0,0,0,0,1,0,0,1,0,0,0,0,0,0,0,0,0,149,12,0
4OOi0RBsJmIzDfTVQ2mTGA,Las Vegas,"2101 S Decatur Blvd Westside Las Vegas, NV 89102",36.148658399999995,-115.20981289999999,Trader Joe's ,193,4.5,NV,business,08:00,19:00,08:00,19:00,08:00,19:00,08:00,19:00,08:00,19:00,08:00,19:00,08:00,19:00,,,,2.0,,,,,,,,,1.0,,,,,,,,,,0.0,0.0,1.0,0.0,0.0,,,,,,,0,0,0,0,0,0,0,1,0,0,0,0,0,0,0,0,0,0,0,0,0,0,0,0,0,0,0,0,0,2111,93,0
UNTSC7Kp2Gc7G0Pg4rCgXQ,Las Vegas,"4200 Spring Mountain Rd Chinatown Las Vegas, NV 89102",36.1268739,-115.19616070000001,Nedco Supply,4,3.0,NV,business,,,,,,,,,,,,,,,,,,,,,,,,,,,,,,,,,,,,,,,,,,,,,,,,0,0,0,0,0,0,0,0,0,0,0,0,0,0,0,0,0,0,0,0,0,0,0,0,0,0,0,0,0,0,0,0
JBoVvwYbW0Kz5gUMVyBWKQ,Las Vegas,"2600 W Sahara Ave Ste 100 Las Vegas, NV 89102",36.1451859,-115.1766297,Marie's Gourmet Bakery,21,4.0,NV,business,,,08:00,16:00,08:00,16:00,08:00,16:00,08:00,16:00,08:00,16:00,,,,,,1.0,1.0,,,,,,,,1.0,,,,,,,,,,0.0,0.0,1.0,0.0,0.0,,,,,,,0,0,0,0,0,0,0,1,0,0,0,0,0,0,0,0,0,0,0,0,0,0,0,0,0,0,0,0,0,18,5,0
eITlhmrOyXhhzyLFKCsPQQ,Las Vegas,"3015 S Valley View Blvd Westside Las Vegas, NV 89102",36.13630379999999,-115.1915119,AAMCO Transmissions Inc,62,5.0,NV,business,,,08:00,17:30,08:00,17:30,08:00,17:30,08:00,17:30,08:00,17:30,08:00,13:30,,,,,,,,,,,,,,,,,,,,,,,,,,,,,,,,,,0,0,0,0,0,0,0,0,0,0,0,0,0,0,0,0,0,0,0,0,0,0,0,0,0,0,0,0,0,32,3,0
fUdr6QMsrBGOYpxS6Dcjdg,Las Vegas,"2800 W Sahara Ave Ste 2A Westside Las Vegas, NV 89102",36.145534000000005,-115.179144,Coffee Pub,201,4.0,NV,business,08:00,15:00,07:00,15:00,07:00,15:00,07:00,15:00,07:00,15:00,07:00,15:00,08:00,15:00,average,casual,none,1.0,1.0,1.0,,1.0,0.0,1.0,1.0,1.0,1.0,0.0,free,,,,,,1.0,,0.0,0.0,1.0,0.0,0.0,,,,,,,1,1,0,0,0,0,0,1,0,0,0,0,0,1,0,0,0,0,0,0,0,0,0,0,0,0,0,0,0,559,53,1
ImR-RQn_OIsFQ90xUDnCFw,Las Vegas,"4731 Spring Mountain Rd Chinatown Las Vegas, NV 89102",36.1250534,-115.2056832,Big Lots,20,3.5,NV,business,,,,,,,,,,,,,,,,,,1.0,,,,,,,,,1.0,,,,,,,,,,0.0,0.0,1.0,0.0,0.0,,,,,,,0,0,0,0,0,0,0,0,0,0,0,0,0,0,0,0,0,0,0,0,0,0,0,0,0,0,0,0,0,107,6,0
GLWix4aqJoD4HyvKqLdP8A,Las Vegas,"Palace Station Hotel & Casino 2421 W Sahara Ave Las Vegas, NV 89102",36.1441893,-115.17444920000001,The Broiler,28,3.5,NV,business,16:00,22:00,16:00,22:00,16:00,22:00,16:00,22:00,16:00,22:00,16:00,22:00,16:00,22:00,quiet,casual,full_bar,3.0,0.0,0.0,,1.0,0.0,0.0,1.0,1.0,1.0,1.0,,,,,,,1.0,,0.0,0.0,1.0,1.0,0.0,,,,,,,1,0,0,0,0,0,0,0,0,0,0,0,0,0,0,0,0,0,0,0,1,0,0,0,0,0,0,0,0,71,10,0
TKE1cyjs9q2PoqMXqEV9Eg,Las Vegas,"2411 W Sahara Ave Las Vegas, NV 89102",36.1431918,-115.17503459999999,Palace Station Hotel & Casino,451,2.5,NV,business,00:00,00:00,00:00,00:00,00:00,00:00,00:00,00:00,00:00,00:00,00:00,00:00,00:00,00:00,average,casual,full_bar,2.0,0.0,0.0,,1.0,1.0,0.0,1.0,0.0,1.0,1.0,free,,,,,,1.0,,0.0,1.0,1.0,1.0,0.0,,,,,,,0,0,0,0,0,0,0,0,0,0,0,0,0,0,0,0,0,0,0,0,0,0,0,0,0,0,0,0,0,2337,119,1
4UVhuOLaMm2-34SrW8y-ag,Las Vegas,"4355 Spring Mountain Rd Chinatown Las Vegas, NV 89102",36.125908,-115.19790400000001,Ichiza,1229,4.0,NV,business,17:00,02:30,17:00,02:30,17:00,02:30,17:00,02:30,17:00,02:30,17:00,02:30,17:00,02:30,average,casual,full_bar,2.0,0.0,0.0,,1.0,0.0,0.0,1.0,1.0,1.0,1.0,no,,,,0.0,0.0,1.0,,0.0,0.0,1.0,0.0,0.0,,,,,,,1,0,0,0,0,0,0,0,0,0,0,0,0,0,0,0,0,0,0,1,0,0,0,0,0,0,0,0,0,4811,431,2
KzLmf4rMtWkoxNst6Q-Ddw,Las Vegas,"4130 Spring Mountain Rd Chinatown Las Vegas, NV 89102",36.1267214,-115.19569109999999,Kao Auto Styling,13,3.5,NV,business,,,,,,,,,,,,,,,,,,,,,,,,,,,,,,,,,,,,,,,,,,,,,,,,0,0,0,0,0,0,0,0,0,0,0,0,0,0,0,0,0,0,0,0,0,0,0,0,0,0,0,0,0,8,3,0
ud5eR2wZe6De2ctwgVrlHA,Las Vegas,"4375 W Desert Inn Rd Westside Las Vegas, NV 89102",36.129992200000004,-115.1986973,Arcoiris Beauty Salon,3,2.0,NV,business,,,,,,,,,,,,,,,,,,1.0,,,,,,,,1.0,1.0,,,,,,,,,,,,,,,,,,,,,0,0,0,0,0,0,0,0,0,0,0,0,0,0,0,0,0,0,0,0,0,0,0,0,0,0,0,0,0,0,1,0
T8lc-ZQebOel_MpxZAUdrQ,Las Vegas,"1825 S Decatur Blvd Westside Las Vegas, NV 89102",36.1513768,-115.2089493,HFR Home Studio,13,3.0,NV,business,,,,,10:00,18:30,10:00,18:30,10:00,18:30,10:00,18:30,10:00,18:30,,,,2.0,,,,,,,,,1.0,,,,,,,,,,0.0,0.0,1.0,0.0,0.0,,,,,,,0,0,0,0,0,0,0,0,0,0,0,0,0,0,0,0,0,0,0,0,0,0,0,0,0,0,0,0,0,12,3,0
l9Kq_kvF5FwNLddv4fmQTA,Las Vegas,"3540 West Sahara Ave #E6 Westside Las Vegas, NV 89102",36.145784899999995,-115.18856480000001,The UPS Store,8,4.5,NV,business,,,07:30,18:00,07:30,18:00,07:30,18:00,07:30,18:00,07:30,18:00,08:00,15:00,,,,,,,,,,,,,1.0,,,,,,,,,,,,,,,,,,,,,0,0,0,0,0,0,0,0,0,0,0,0,0,0,0,0,0,0,0,0,0,0,0,0,0,0,0,0,0,34,2,0
P7BOsB2RbnkAFG3kQYuHHw,Las Vegas,"4552 Spring Mountain Rd Chinatown Las Vegas, NV 89102",36.126588399999996,-115.20261140000001,Dealer's Choice Lounge,8,4.0,NV,business,00:00,00:00,00:00,00:00,00:00,00:00,00:00,00:00,00:00,00:00,00:00,00:00,00:00,00:00,loud,,full_bar,1.0,,0.0,,1.0,1.0,,,,1.0,,,1.0,1.0,yes,,,,0.0,0.0,0.0,0.0,0.0,0.0,,,,,1.0,,0,0,0,1,0,1,0,0,0,0,0,0,0,0,0,0,0,0,0,0,0,0,0,0,0,0,0,0,0,39,4,0
Zv3PKCf27muSxi7OHXG15Q,Las Vegas,"3440 Spring Mountain Rd Chinatown Las Vegas, NV 89102",36.1266223,-115.18600649999999,European Motor Cars,22,3.0,NV,business,,,07:30,18:00,07:30,18:00,07:30,18:00,07:30,18:00,07:30,18:00,08:00,14:00,,,,,,,,,,,,,,,,,,,,,,,,,,,,,,,,,,0,0,0,0,0,0,0,0,0,0,0,0,0,0,0,0,0,0,0,0,0,0,0,0,0,0,0,0,0,33,6,0
WIRMxExsMOJSE3qRr64ykw,Las Vegas,"3899 Spring Mountain Rd Chinatown Las Vegas, NV 89102",36.1263711,-115.19176920000001,Western Oriental Super Market,6,2.5,NV,business,,,,,,,,,,,,,,,,,,,,,,,,,,,,,,,,,,,,,,,,,,,,,,,,0,0,0,0,0,0,0,1,0,0,0,0,0,0,0,0,0,0,0,0,0,0,0,0,0,0,0,0,0,7,0,0
9GJc7HF6mZvFq049-O_0LQ,Las Vegas,"3553 S Valley View Blvd Chinatown Las Vegas, NV 89103",36.1251129,-115.1904567,Good Hands Massage Day Spa,8,3.0,NV,business,10:00,00:00,10:00,00:00,10:00,00:00,10:00,00:00,10:00,00:00,10:00,00:00,10:00,00:00,,,,2.0,,,,,,,,,1.0,,,,,,,,,,0.0,0.0,1.0,0.0,0.0,,,,,,,0,0,0,0,0,0,0,0,0,0,0,0,0,0,0,0,0,0,0,0,0,0,0,0,0,0,0,0,0,9,0,0
PTbikfcSHR1dTze0EJQMlA,Las Vegas,"3620 W Sahara Ave Ste W4 Westside Las Vegas, NV 89102",36.145727,-115.1903294,Gianna's Pizza,37,4.0,NV,business,11:00,21:00,11:00,21:00,11:00,21:00,11:00,21:00,11:00,21:00,11:00,22:00,11:00,22:00,average,casual,beer_and_wine,1.0,1.0,1.0,,1.0,1.0,1.0,1.0,1.0,1.0,1.0,free,,,,,,1.0,,0.0,0.0,1.0,0.0,0.0,,,,,,,1,0,0,0,1,0,0,0,0,0,0,0,0,0,0,0,0,0,0,0,0,0,0,0,0,0,0,0,0,55,14,1
X7HN6ZR3WEErjdpnyLktGg,Las Vegas,"2800 W Sahara Ave Ste 6A Westside Las Vegas, NV 89102",36.1450464,-115.1795317,Pheasant Cigars,10,4.0,NV,business,11:00,15:00,11:00,18:00,10:30,19:00,10:30,19:00,10:30,19:00,10:30,19:00,10:00,17:00,,,,2.0,,,,,,,,,1.0,,,,,,,,,,0.0,0.0,1.0,0.0,0.0,,,,,,,0,0,0,0,0,0,0,0,0,0,0,0,0,0,0,0,0,0,0,0,0,0,0,0,0,0,0,0,0,11,4,0
WVhTtjj6hPwxbpsK2gs4HQ,Las Vegas,"4360 Spring Mountain Rd Chinatown Las Vegas, NV 89102",36.127003,-115.19838100000001,Leatherneck Club of Greater Nv 186,15,4.5,NV,business,11:00,22:00,11:00,22:00,11:00,22:00,11:00,22:00,11:00,22:00,11:00,23:00,11:00,23:00,,,,,,,,,,,,0.0,,,,,,,,,,,,,,,,,,,,,,0,0,0,0,0,0,0,0,0,0,0,0,0,0,0,0,0,0,0,0,0,0,0,0,0,0,0,0,0,71,6,0
t0PNqBiITGf_AY6uNsaD5g,Las Vegas,"3200 W Sirius Ave Westside Las Vegas, NV 89102",36.1339943,-115.1835685,Boomer's Bar,19,3.5,NV,business,08:00,00:00,08:00,00:00,08:00,00:00,08:00,00:00,08:00,00:00,08:00,00:00,08:00,00:00,very_loud,casual,full_bar,1.0,0.0,0.0,,1.0,1.0,0.0,0.0,0.0,1.0,0.0,free,1.0,1.0,yes,,,0.0,0.0,1.0,0.0,1.0,0.0,0.0,1.0,,0.0,1.0,0.0,,1,0,0,1,0,1,0,0,1,0,0,0,0,0,0,0,0,0,0,0,0,0,0,0,0,0,0,0,0,113,17,0
0qOf05JyHJopL0mE0qWMCg,Las Vegas,"4255 Spring Mountain Rd Ste 110 Chinatown Las Vegas, NV 89102",36.1254312,-115.1969657,Diamond Bakery,100,3.5,NV,business,,,,,,,,,,,,,,,,,,1.0,0.0,,,,,,,,1.0,,,,,,,,,,0.0,0.0,1.0,0.0,0.0,,,,,,,0,0,0,0,0,0,0,1,0,0,0,0,0,0,0,0,0,0,0,0,0,0,0,0,0,0,0,0,0,319,26,1
vEJIgHv5gN89whV1A5e0GA,Las Vegas,"4125 W Desert Inn Rd Westside Las Vegas, NV 89102",36.129746999999995,-115.195007,Dan Bradley Glass Shop,13,3.0,NV,business,,,07:00,17:00,07:00,17:00,07:00,17:00,07:00,17:00,07:00,17:00,08:00,14:00,,,,,,,,,,,,,1.0,,,,,,,,,,,,,,,,,,,,,0,0,0,0,0,0,0,0,0,0,0,0,0,0,0,0,0,0,0,0,0,0,0,0,0,0,0,0,0,0,0,0
iQvAEL2XYqtBZqmV_I9cgQ,Las Vegas,"4115 Spring Mountain Road Suite B-105 Chinatown Las Vegas, NV 89102",36.1260097,-115.1951608,T & T Ginseng,14,3.5,NV,business,,,,,,,,,,,,,,,,,,2.0,,,,,,,,,1.0,,,,,,,,,,0.0,0.0,1.0,0.0,0.0,,,,,,,0,0,0,0,0,0,0,1,0,0,0,0,0,0,0,0,0,0,0,0,0,0,0,0,0,0,0,0,0,72,4,0
aHGcljVZPA1PAOZdbMhuaA,Las Vegas,"3240 Arville St Westside Las Vegas, NV 89102",36.13089,-115.198727,Moon Doggies,70,4.0,NV,business,00:00,00:00,00:00,00:00,00:00,00:00,00:00,00:00,00:00,00:00,00:00,00:00,00:00,00:00,average,,full_bar,1.0,,0.0,,1.0,1.0,,,,1.0,,,1.0,0.0,yes,,,,0.0,0.0,0.0,1.0,0.0,0.0,0.0,,0.0,0.0,1.0,,0,0,0,1,0,1,0,0,0,0,0,0,0,0,0,0,0,0,0,0,0,0,0,0,0,0,0,0,0,322,19,0
1ldDbggHHgPlj3k0SpBTKQ,Las Vegas,"4215 Spring Mountain Rd Ste B101 Chinatown Las Vegas, NV 89102",36.125380799999995,-115.1959803,Sam Woo BBQ Restaurant,374,2.0,NV,business,,,,,,,,,,,,,,,average,casual,none,2.0,0.0,0.0,,1.0,0.0,0.0,1.0,1.0,0.0,0.0,no,,,,0.0,0.0,1.0,,0.0,0.0,1.0,0.0,0.0,,,,,,,1,0,0,0,0,0,0,0,0,0,1,0,0,0,0,0,0,0,0,0,0,0,0,1,0,0,0,0,0,612,63,0
z04vWCDuWoAidvv54X8IdQ,Las Vegas,"328 W Sahara Ave The Strip Las Vegas, NV 89102",36.1441601,-115.16169609999999,En Fuego Cigars & Lounge,65,4.5,NV,business,10:00,18:00,09:00,21:00,09:00,21:00,09:00,21:00,09:00,21:00,09:00,23:00,10:00,23:00,average,,none,2.0,,0.0,,1.0,1.0,,,,1.0,,,0.0,0.0,yes,,,,0.0,0.0,0.0,1.0,0.0,0.0,0.0,,,,,,0,0,0,1,0,1,0,0,0,0,0,0,0,0,0,0,0,0,0,0,0,0,0,0,0,0,0,0,0,429,14,0
tbBt5Gvli5EAd0OCU1-q2Q,Las Vegas,"1109 Western Ave Downtown Las Vegas, NV 89102",36.1583929,-115.1594455,Red Rooster Antique Mall,6,3.0,NV,business,,,,,,,,,,,,,,,,,,4.0,,,,,,,,,1.0,,,,,,,,,,0.0,0.0,0.0,0.0,0.0,,,,,,,0,0,0,0,0,0,0,0,0,0,0,0,0,0,0,0,0,0,0,0,0,0,0,0,0,0,0,0,0,6,2,0
MR3-Ll-hoUGZMA-B1MTgGQ,Las Vegas,"1725 W Charleston Blvd Downtown Las Vegas, NV 89102",36.1585898,-115.16493270000001,Wendy's,10,2.5,NV,business,,,,,,,,,,,,,,,,casual,none,1.0,0.0,0.0,1.0,1.0,0.0,,0.0,1.0,1.0,0.0,no,,,,,,1.0,,,,,,,,,,,,,1,0,1,0,0,0,0,0,0,1,0,0,0,0,0,0,0,0,0,0,0,0,0,0,0,0,0,0,0,70,3,0
toApTFRzq4NXfdMq7uEz4A,Las Vegas,"2411 Highland Dr Las Vegas, NV 89102",36.145241,-115.167872,Italy's Service,3,3.5,NV,business,,,,,,,,,,,,,,,,,,,,,,,,,,,,,,,,,,,,,,,,,,,,,,,,0,0,0,0,0,0,0,0,0,0,0,0,0,0,0,0,0,0,0,0,0,0,0,0,0,0,0,0,0,0,0,0
0EZ3j0POS4FC5zYjUDU4Cg,Las Vegas,"4790 S Ft. Apache Rd Spring Valley Las Vegas, NV 89147",36.102015,-115.29653190000002,Sushi House Manda,4,5.0,NV,business,17:00,22:00,17:00,22:00,17:00,22:00,17:00,22:00,17:00,22:00,17:00,22:00,17:00,22:00,average,,,,,,,1.0,,,,1.0,1.0,,,,,,,,,,0.0,0.0,0.0,0.0,0.0,,,,,,,1,0,0,0,0,0,0,0,0,0,0,0,0,0,0,0,0,0,0,1,0,0,0,0,0,0,0,0,0,0,0,0
nfoNFCYhW1WQBC7KUnNK-g,Las Vegas,"1117 S Commerce St Downtown Las Vegas, NV 89102",36.158218299999994,-115.15456110000001,Clark County Bar & Restaurant Supply,4,3.5,NV,business,,,08:00,17:00,08:00,17:00,08:00,17:00,08:00,17:00,08:00,17:00,,,,,,,,,,,,,,,1.0,,,,,,,,,,,,,,,,,,,,,0,0,0,0,0,0,0,0,0,0,0,0,0,0,0,0,0,0,0,0,0,0,0,0,0,0,0,0,0,5,0,0
VjZm4JWRVIS2P44SzjDlhw,Las Vegas,"2400 Western Ave Las Vegas, NV 89102",36.1456675,-115.1670763,The Jewelers of Las Vegas,32,4.5,NV,business,,,09:00,18:00,09:00,18:00,09:00,18:00,09:00,18:00,09:00,18:00,09:00,18:00,,,,3.0,,,,,,,,,1.0,,,,,,,,,,0.0,0.0,1.0,0.0,0.0,,,,,,,0,0,0,0,0,0,0,0,0,0,0,0,0,0,0,0,0,0,0,0,0,0,0,0,0,0,0,0,0,23,1,0
UlAlR-arC6PSKsGbSSQk4w,Las Vegas,"326 W Sahara Ave The Strip Las Vegas, NV 89102",36.1441565,-115.16159640000002,Sparkle Cleaners & Laundry,15,3.5,NV,business,,,09:00,18:00,09:00,18:00,09:00,18:00,09:00,18:00,09:00,18:00,,,,,,2.0,,,,,,,,,1.0,,no,,,,,,,,0.0,0.0,1.0,0.0,0.0,,,,,,,0,0,0,0,0,0,0,0,0,0,0,0,0,0,0,0,0,0,0,0,0,0,0,0,0,0,0,0,0,16,0,0
aQDIqnXwx14iSsLva7bhMA,Las Vegas,"1606 W Oakey Blvd Las Vegas, NV 89102",36.1521287,-115.1629086,Kellys Kasino,4,5.0,NV,business,,,,,,,,,,,,,,,,,,1.0,,,,,,,,,1.0,,,,,,,,,,0.0,0.0,1.0,0.0,0.0,,,,,,,0,0,0,0,0,0,0,1,0,0,0,0,0,0,0,0,0,0,0,0,0,0,0,0,0,0,0,0,0,18,0,0
RHilsNFYHqO5IqoRZIg1BA,Las Vegas,"3345 S Maryland Pkwy Eastside Las Vegas, NV 89169",36.128558,-115.13775,Nevada State Bank,3,2.0,NV,business,,,09:00,17:00,09:00,17:00,09:00,17:00,09:00,17:00,09:00,18:00,10:00,14:00,,,,,,,,,,,,,,,,,,,,,,,,,,,,,,,,,,0,0,0,0,0,0,0,0,0,0,0,0,0,0,0,0,0,0,0,0,0,0,0,0,0,0,0,0,0,0,0,0
xKUlhZEaPzYMjWy5BLq7IQ,Las Vegas,"1800 W Charleston Blvd Downtown Las Vegas, NV 89102",36.1601114,-115.16707690000001,University Medical Center,66,2.0,NV,business,00:00,00:00,00:00,00:00,00:00,00:00,00:00,00:00,00:00,00:00,00:00,00:00,00:00,00:00,,,,,,,,,,,,,,,,,,,,,,,,,,,,,,,,,,0,0,0,0,0,0,0,0,0,0,0,0,0,0,0,0,0,0,0,0,0,0,0,0,0,0,0,0,0,906,25,1
v8TQwyxEj4or2Yng6y0S7A,Las Vegas,"4355 Spring Mountain Rd Chinatown Las Vegas, NV 89102",36.125908,-115.19790400000001,Korean Garden BBQ House,212,3.0,NV,business,11:00,23:00,11:00,23:00,11:00,23:00,11:00,23:00,11:00,23:00,11:00,23:00,11:00,23:00,average,casual,beer_and_wine,2.0,0.0,0.0,,1.0,1.0,0.0,1.0,1.0,1.0,1.0,no,,,,,,0.0,,0.0,0.0,1.0,0.0,0.0,,,,,,,1,0,0,0,0,0,0,0,0,0,0,0,0,0,0,0,0,1,0,0,0,0,0,1,0,0,0,0,0,712,51,2
g6WTNuazVz7ObX5L3TLPig,Las Vegas,"2202 W Charleston Blvd Ste 6 Downtown Las Vegas, NV 89102",36.159372399999995,-115.1720733,Desert Ink Tattoo,4,5.0,NV,business,12:00,18:00,12:30,18:00,,,12:00,22:00,12:00,22:00,12:00,22:00,12:00,22:00,,,,2.0,,,,,,,,,1.0,,,,,,,,,,0.0,0.0,0.0,0.0,0.0,,,,,,,0,0,0,0,0,0,0,0,0,0,0,0,0,0,0,0,0,0,0,0,0,0,0,0,0,0,0,0,0,0,1,0
EghTbidvKFH8ZzuDwU-lng,Las Vegas,"2112 Western Ave Las Vegas, NV 89102",36.1478492,-115.1658636,Cheetah's,52,2.5,NV,business,00:00,00:00,00:00,00:00,00:00,00:00,00:00,00:00,00:00,00:00,00:00,00:00,00:00,00:00,loud,,full_bar,2.0,,0.0,,1.0,1.0,,,,1.0,,,1.0,0.0,yes,,,,0.0,0.0,0.0,1.0,0.0,0.0,1.0,,0.0,0.0,0.0,,0,0,0,1,0,0,0,0,0,0,0,0,0,0,0,0,0,0,0,0,0,0,0,0,0,0,0,0,0,119,15,0
oIvHLNiqE_T8UVV29Ikx9Q,Las Vegas,"3117 W Charleston Boulevard Westside Las Vegas, NV 89102",36.158408,-115.184151,Avena Steven A DDS,4,4.5,NV,business,,,,,,,,,,,,,,,,,,,,,,,,,,,,,,,,,,,,,,,,,,,,,,,,0,0,0,0,0,0,0,0,0,0,0,0,0,0,0,0,0,0,0,0,0,0,0,0,0,0,0,0,0,0,0,0
yZBbyqj3EYRM__DkusY5Rg,Las Vegas,"1910 Western Avenue Las Vegas, NV 89102",36.149443,-115.16461399999999,Fischer's Auto Body,5,5.0,NV,business,,,07:30,17:00,07:30,17:00,07:30,17:00,07:30,17:00,07:30,17:00,08:00,13:00,,,,,,,,,,,,,,,,,,,,,,,,,,,,,,,,,,0,0,0,0,0,0,0,0,0,0,0,0,0,0,0,0,0,0,0,0,0,0,0,0,0,0,0,0,0,0,0,0
YZuHOgbKiP3dN4_ROOUyDQ,Las Vegas,"308 W Sahara Ave The Strip Las Vegas, NV 89102",36.144092799999996,-115.16114340000001,Golden Steer Steakhouse,393,4.0,NV,business,16:30,23:00,16:30,23:00,16:30,23:00,16:30,23:00,16:30,23:00,16:30,23:00,16:30,23:00,average,dressy,full_bar,3.0,0.0,0.0,,1.0,1.0,0.0,1.0,0.0,1.0,1.0,free,,,,0.0,1.0,1.0,,0.0,0.0,1.0,0.0,0.0,,,,,,,1,0,0,0,0,0,0,0,0,0,0,0,0,0,0,0,0,0,0,0,0,0,0,0,0,0,0,0,0,510,70,1
r4aauZ3KUo4pMRP9HriBBw,Las Vegas,"6630 Arroyo Springs St Ste 1200 Spring Valley Las Vegas, NV 89113",36.0654714349079,-115.257221936523,Econ-the Appliance People,3,3.5,NV,business,,,08:00,17:00,08:00,17:00,08:00,17:00,08:00,17:00,08:00,17:00,,,,,,3.0,,,,,,,,,1.0,,,,,,,,,,0.0,0.0,0.0,0.0,0.0,,,,,,,0,0,0,0,0,0,0,0,0,0,0,0,0,0,0,0,0,0,0,0,0,0,0,0,0,0,0,0,0,0,0,0
RBPVB9RTi4zCNOQnXNrdVQ,Las Vegas,"2002 S Highland Ave Las Vegas, NV 89102",36.148929100000004,-115.1660747,Action Air Conditioning,39,4.5,NV,business,00:00,00:00,00:00,00:00,00:00,00:00,00:00,00:00,00:00,00:00,00:00,00:00,00:00,00:00,,,,,,,,,,,,,1.0,,,,,,,,,,,,,,,,,,,,,0,0,0,0,0,0,0,0,0,0,0,0,0,0,0,0,0,0,0,0,0,0,0,0,0,0,0,0,0,0,2,0
sewf0n2bOKcKTvy2Xo1H8g,Las Vegas,"1522 W Charleston Blvd Downtown Las Vegas, NV 89102",36.1592159,-115.1619706,Carl's Jr,18,3.0,NV,business,00:00,00:00,00:00,00:00,00:00,00:00,00:00,00:00,00:00,00:00,00:00,00:00,00:00,00:00,average,casual,none,1.0,0.0,0.0,1.0,1.0,0.0,0.0,0.0,1.0,1.0,0.0,,,,,,,1.0,,0.0,0.0,0.0,0.0,0.0,,,,,,,1,0,1,0,0,0,0,0,0,1,0,0,0,0,0,0,0,0,0,0,0,0,0,0,0,0,0,0,0,123,7,0
xySe7wnRDgUAN0giwofjRQ,Las Vegas,"2202 W Charleston Blvd Ste 2 Downtown Las Vegas, NV 89102",36.159372399999995,-115.1720733,Book Magician,5,3.0,NV,business,,,,,,,,,,,,,,,,,,,,,,,,,,,,,,,,,,,,,,,,,,,,,,,,0,0,0,0,0,0,0,0,0,0,0,0,0,0,0,0,0,0,0,0,0,0,0,0,0,0,0,0,0,0,1,0
KPrZtPx63b3X7HerZekX5Q,Las Vegas,"1932 Western Ave Las Vegas, NV 89102",36.1419102,-115.1688028,A & R Appliance,14,3.0,NV,business,,,08:00,17:00,08:00,17:00,08:00,17:00,08:00,17:00,08:00,17:00,09:00,13:00,,,,,,,,,,,,,1.0,,,,,,,,,,,,,,,,,,,,,0,0,0,0,0,0,0,0,0,0,0,0,0,0,0,0,0,0,0,0,0,0,0,0,0,0,0,0,0,0,0,0
eoDEx1GGQA0CBDhy2ql_Kw,Las Vegas,"2160 W Charleston Blvd Downtown Las Vegas, NV 89102",36.1594391,-115.17122759999998,Omelet House,604,4.0,NV,business,07:00,15:00,07:00,15:00,07:00,15:00,07:00,15:00,07:00,15:00,07:00,15:00,07:00,15:00,average,casual,none,2.0,0.0,0.0,,1.0,0.0,0.0,1.0,1.0,1.0,0.0,no,,,,,,1.0,,0.0,0.0,1.0,0.0,0.0,,,,,,,1,0,0,0,0,0,0,0,1,0,0,0,0,1,0,0,0,0,0,0,0,0,0,0,0,0,0,0,0,2075,170,1
TA1crolYAVAPiOHZMcYdMw,Las Vegas,"2311 Industrial Rd Las Vegas, NV 89102",36.1455581,-115.16333770000001,Western Commercial Services,5,4.0,NV,business,,,,,,,,,,,,,,,,,,,,,,,,,,,1.0,,,,,,,,,,,,,,,,,,,,,0,0,0,0,0,0,0,0,0,0,0,0,0,0,0,0,0,0,0,0,0,0,0,0,0,0,0,0,0,0,0,0
8izNisB-aS1dOB6cFVZdPg,Las Vegas,"1675 Industrial Rd Downtown Las Vegas, NV 89102",36.1510984,-115.1598044,Hard Hat Lounge,26,3.5,NV,business,00:00,00:00,00:00,00:00,00:00,00:00,00:00,00:00,00:00,00:00,00:00,00:00,00:00,00:00,average,casual,full_bar,1.0,0.0,0.0,,1.0,1.0,1.0,0.0,0.0,1.0,0.0,no,1.0,1.0,yes,,,1.0,0.0,0.0,0.0,1.0,0.0,0.0,,,,,,,1,0,0,1,0,1,0,0,0,0,0,0,0,0,0,0,0,0,0,0,0,0,0,0,0,0,0,0,0,121,6,0
SkxqO4FgEJebz7kCzjvYYQ,Las Vegas,"318 W Sahara Ave The Strip Las Vegas, NV 89102",36.1441474,-115.1613475,Adar Kosher Pizza,18,2.0,NV,business,11:00,20:00,11:00,20:00,11:00,20:00,11:00,20:00,11:00,20:00,,,19:00,00:00,quiet,casual,none,2.0,1.0,0.0,,1.0,0.0,,1.0,1.0,1.0,1.0,no,,,,,,1.0,,0.0,0.0,1.0,0.0,0.0,,,,,,,1,0,0,0,1,0,0,0,0,0,0,0,0,0,0,0,0,0,0,0,0,0,0,0,0,0,0,0,0,5,3,0
LPj92bahzbf5c_ar8QS0fw,Las Vegas,"1630 S Commerce St Downtown Las Vegas, NV 89102",36.1509685,-115.1557909,Culinary Workers Union  Local No 226,3,4.5,NV,business,,,,,,,,,,,,,,,,,,,,,,,,,,,1.0,,,,,,,,,,,,,,,,,,,,,0,0,0,0,0,0,0,0,0,0,0,0,0,0,0,0,0,0,0,0,0,0,0,0,0,0,0,0,0,29,2,0
jnmq1HznoT0Fje11rxQOew,Las Vegas,"4347 W Charleston Blvd Westside Las Vegas, NV 89102",36.158840399999995,-115.1989841,Flex Cocktail Lounge,21,4.0,NV,business,06:00,06:00,06:00,06:00,06:00,06:00,06:00,06:00,06:00,06:00,06:00,06:00,06:00,06:00,loud,,full_bar,1.0,,0.0,,1.0,1.0,,,,1.0,,,1.0,1.0,yes,,,,0.0,0.0,0.0,1.0,0.0,0.0,,,,,,,0,0,0,1,0,1,0,0,0,0,0,0,0,0,0,0,0,0,0,0,0,0,0,0,0,0,0,0,0,77,7,0
uE8UZzb8xMMULary5sXHpQ,Las Vegas,"1900 Industrial Rd Las Vegas, NV 89102",36.149127500000006,-115.1617412,Bell Trans,357,2.5,NV,business,00:00,00:00,00:00,00:00,00:00,00:00,00:00,00:00,00:00,00:00,00:00,00:00,00:00,00:00,,,,,,,,,,,,,,,,,,,,,,,,,,,,,,,,,,0,0,0,0,0,0,0,0,0,0,0,0,0,0,0,0,0,0,0,0,0,0,0,0,0,0,0,0,0,72,23,1
u3HvmIrG9eMCR8j44M7kwg,Las Vegas,"3985 W Post Rd Las Vegas, NV 89118",36.075108,-115.193173,Naakiti Floral Design,12,4.0,NV,business,,,09:00,17:00,09:00,17:00,09:00,17:00,09:00,17:00,09:00,17:00,,,,,,2.0,1.0,,,,,,,,1.0,,,,,,,,,,0.0,0.0,1.0,0.0,0.0,,,,,,,0,0,0,0,0,0,0,0,0,0,0,0,0,0,0,0,0,0,0,0,0,0,0,0,0,0,0,0,0,9,2,0
jIlL6Z8LZvaXPJJjTlP_Eg,Las Vegas,"1815 W Charleston Blvd Ste 1 Las Vegas, NV 89102",36.1580151,-115.16619340000001,Genesis Books,3,4.5,NV,business,,,10:00,17:00,10:00,17:00,10:00,17:00,10:00,17:00,10:00,17:00,10:00,17:00,,,,,,,,,,,,,1.0,,,,,,,,,,,,,,,,,,,,,0,0,0,0,0,0,0,0,0,0,0,0,0,0,0,0,0,0,0,0,0,0,0,0,0,0,0,0,0,0,1,0
An1ODZ6P6bIMXtDSUUk8Iw,Las Vegas,"2100 Pinto Ln Downtown Las Vegas, NV 89106",36.1645064,-115.17029879999998,Doctor Gary J La Tourette,3,3.5,NV,business,,,08:00,17:00,08:00,17:00,08:00,17:00,08:00,17:00,08:00,17:00,,,,,,,,,,,,,,,,,,,,,,,,,,,,,,,,,,,,0,0,0,0,0,0,0,0,0,0,0,0,0,0,0,0,0,0,0,0,0,0,0,0,0,0,0,0,0,0,1,0
KD1poLA6AhA5tT6bdIke2g,Las Vegas,"4033 W Charleston Blvd Westside Las Vegas, NV 89102",36.1584644,-115.194129,Atlas Group LC,20,2.5,NV,business,,,09:00,17:00,09:00,17:00,09:00,17:00,09:00,17:00,09:00,17:00,,,,,,,,,,,,,,,0.0,,,,,,,,,,,,,,,,,,,,,0,0,0,0,0,0,0,0,0,0,0,0,0,0,0,0,0,0,0,0,0,0,0,0,0,0,0,0,0,6,0,0
4uNZ1tGBYd6fvUcFb9x1HQ,Las Vegas,"105 W Charleston Blvd Downtown Las Vegas, NV 89102",36.158406,-115.155484,Artistic Iron Works,37,3.5,NV,business,,,08:00,17:00,08:00,17:00,08:00,17:00,08:00,17:00,08:00,17:00,09:00,16:00,,,,3.0,,,,,,,,,1.0,,,,,,,,,,0.0,0.0,1.0,0.0,0.0,,,,,,,0,0,0,0,0,0,0,0,0,0,0,0,0,0,0,0,0,0,0,0,0,0,0,0,0,0,0,0,0,10,2,0
259TmptwDUjXWgPlKf52Tw,Las Vegas,"1811 W Charleston Blvd Downtown Las Vegas, NV 89102",36.158683,-115.1663612,Real Donuts,115,4.5,NV,business,05:00,14:00,04:00,18:00,04:00,18:00,04:00,18:00,04:00,18:00,04:00,18:00,05:00,15:00,,,,1.0,,0.0,,,,,,,1.0,,no,,,,,,,,0.0,0.0,1.0,0.0,0.0,,,,,,,0,0,0,0,0,0,0,1,0,0,0,0,0,0,0,0,0,0,0,0,0,0,0,0,0,0,0,0,0,452,55,2
vtWYMSCfLzoq96VKo0Cv0Q,Las Vegas,"3869 Spring Mountain Rd Chinatown Las Vegas, NV 89102",36.126368799999995,-115.1913807,Gerardo's Classic Barber Shop,84,4.0,NV,business,09:00,15:00,08:00,18:00,08:00,18:00,08:00,18:00,08:00,18:00,08:00,18:00,08:00,18:00,,,,1.0,,,,,,,,,0.0,,,,,,,,,,0.0,0.0,1.0,0.0,0.0,,,,,,,0,0,0,0,0,0,0,0,0,0,0,0,0,0,0,0,0,0,0,0,0,0,0,0,0,0,0,0,0,263,26,0
YYgIdL6UZvcaxVev2UQJNA,Las Vegas,"3300 Meade Ave Westside Las Vegas, NV 89102",36.1365864,-115.18545559999998,Tahoe Springs,16,3.5,NV,business,,,09:00,17:00,09:00,17:00,09:00,17:00,09:00,17:00,09:00,17:00,,,,,,,,,,,,,,,,,,,,,,,,,,,,,,,,,,,,0,0,0,0,0,0,0,0,0,0,0,0,0,0,0,0,0,0,0,0,0,0,0,0,0,0,0,0,0,0,2,0
oqXBRhEDihiUNytXkFa1aQ,Las Vegas,"3400 Procyon Street Westside Las Vegas, NV 89102",36.129014500000004,-115.18743390000002,Kelly's Glass & Mirror Company,19,3.5,NV,business,,,,,,,,,,,,,,,,,,,,,,,,,,,1.0,,,,,,,,,,,,,,,,,,,,,0,0,0,0,0,0,0,0,0,0,0,0,0,0,0,0,0,0,0,0,0,0,0,0,0,0,0,0,0,0,0,0
Aw8-7i3oNsVbe7zGxocUqw,Las Vegas,"853 S Rainbow Blvd Westside Las Vegas, NV 89145",36.16367279999999,-115.24470359999998,One Nevada Credit Union,13,3.0,NV,business,,,10:00,18:00,10:00,18:00,10:00,18:00,10:00,18:00,10:00,18:00,,,,,,,,,,,,,,,,,,,,,,,,,,,,,,,,,,,,0,0,0,0,0,0,0,0,0,0,0,0,0,0,0,0,0,0,0,0,0,0,0,0,0,0,0,0,0,26,5,0
VOAmSVOcVECr8YNujwURMg,Las Vegas,"2009 Western Ave Las Vegas, NV 89102",36.148115000000004,-115.16388700000002,Mr. Rooter Plumbing,24,3.0,NV,business,00:00,00:00,00:00,00:00,00:00,00:00,00:00,00:00,00:00,00:00,00:00,00:00,00:00,00:00,,,,,,,,,,,,,1.0,,,,,,,,,,,,,,,,,,,,,0,0,0,0,0,0,0,0,0,0,0,0,0,0,0,0,0,0,0,0,0,0,0,0,0,0,0,0,0,0,0,0
nYiZxzy4y9cF-QNbkECweQ,Las Vegas,"2411 Western Ave Ste A1 Las Vegas, NV 89102",36.1449968,-115.1666976,Charlie Cheap Car,10,4.0,NV,business,10:00,18:00,08:30,20:00,08:30,20:00,08:30,20:00,08:30,20:00,08:30,20:00,08:30,20:00,,,,,,,,,,,,,,,,,,,,,,,,,,,,,,,,,,0,0,0,0,0,0,0,0,0,0,0,0,0,0,0,0,0,0,0,0,0,0,0,0,0,0,0,0,0,0,1,0
Yin_BwfzTOdC8VY9ZD4K6w,Las Vegas,"322 W. Sahara The Strip Las Vegas, NV 89102",36.1441292,-115.1614606,Capriotti's Sandwich Shop,262,4.0,NV,business,11:00,19:00,10:00,20:00,10:00,20:00,10:00,20:00,10:00,20:00,10:00,20:00,10:00,20:00,average,casual,none,1.0,1.0,0.0,,1.0,0.0,1.0,0.0,1.0,1.0,0.0,no,,,,,,1.0,,0.0,0.0,1.0,0.0,0.0,,,,,,,1,1,0,0,0,0,0,0,0,0,0,0,0,0,0,0,0,0,0,0,0,0,0,0,0,0,0,0,0,640,61,0
JBMfMZS_Oac8_ktOULqTAg,Las Vegas,"3441 W Sahara Ave Ste B2 Westside Las Vegas, NV 89102",36.1432936,-115.1873861,Montesano's Italian Deli,4,5.0,NV,business,,,,,,,,,,,,,,,,casual,,2.0,1.0,0.0,,1.0,,,1.0,1.0,1.0,,,,,,,,1.0,,0.0,0.0,0.0,0.0,0.0,,,,,,,1,0,0,0,0,0,0,0,0,0,0,1,0,0,0,0,0,0,0,0,0,0,0,0,0,0,0,0,0,0,0,0
kX_bzM0DrV5A8cjk4B7fVA,Las Vegas,"15 W Charleston Blvd Downtown Las Vegas, NV 89102",36.1585264,-115.15433329999999,Chihuahua Tires,14,4.0,NV,business,,,,,,,,,,,,,,,,,,,,,,,,,,,,,,,,,,,,,,,,,,,,,,,,0,0,0,0,0,0,0,0,0,0,0,0,0,0,0,0,0,0,0,0,0,0,0,0,0,0,0,0,0,9,2,0
5QPcBXMC6ZXKKUDYInYjlA,Las Vegas,"4325 W Desert Inn Rd Ste 1 Westside Las Vegas, NV 89102",36.1296689,-115.1977811,Desert Inn Auto Repair,12,2.5,NV,business,00:00,00:00,00:00,00:00,00:00,00:00,00:00,00:00,00:00,00:00,00:00,00:00,00:00,00:00,,,,,,,,,,,,,,,,,,,,,,,,,,,,,,,,,,0,0,0,0,0,0,0,0,0,0,0,0,0,0,0,0,0,0,0,0,0,0,0,0,0,0,0,0,0,6,1,0
Of5HsY38SX7BSC81gNnuuw,Las Vegas,"3305 W Spring Mtn. Rd Suite 103 Chinatown Las Vegas, NV 89102",36.1257805,-115.18379420000001,Moore Protection Services,4,2.0,NV,business,,,09:00,17:00,09:00,17:00,09:00,17:00,09:00,17:00,09:00,17:00,,,,,,,,,,,,,,,1.0,,,,,,,,,,,,,,,,,,,,,0,0,0,0,0,0,0,0,0,0,0,0,0,0,0,0,0,0,0,0,0,0,0,0,0,0,0,0,0,0,0,0
4faKQ-_gy7gJ8m9xhY5uuw,Las Vegas,"953 E Sahara Ave Ste B10 Eastside Las Vegas, NV 89104",36.143749,-115.14148600000001,Bad Attitude Boutique - The Corset Store,22,4.5,NV,business,,,12:00,18:45,12:00,18:45,12:00,18:45,12:00,18:45,12:00,18:45,12:00,18:45,,,,3.0,,,,,,,,,1.0,,,,,,,,,,0.0,0.0,1.0,0.0,0.0,,,,,,,0,0,0,0,0,0,0,0,0,0,0,0,0,0,0,0,0,0,0,0,0,0,0,0,0,0,0,0,0,22,3,0
fpDFSoDPNzIFke8ZZ-yO1g,Las Vegas,"4001 W Charleston Blvd Westside Las Vegas, NV 89102",36.158527899999996,-115.19354479999998,The Salvation Army,14,3.5,NV,business,,,10:00,18:00,10:00,18:00,10:00,18:00,10:00,18:00,10:00,18:00,10:00,18:00,,,,1.0,,,,,,,,,1.0,,,,,,,,,,0.0,0.0,1.0,0.0,0.0,,,,,,,0,0,0,0,0,0,0,0,0,0,0,0,0,0,0,0,0,0,0,0,0,0,0,0,0,0,0,0,0,16,3,0
mCBX5abwdN7LQkTwzQpokQ,Las Vegas,"390 W Sahara Ave The Strip Las Vegas, NV 89102",36.144245399999996,-115.1627574,American Costumes,19,4.0,NV,business,,,,,,,,,,,,,,,,,,2.0,,,,,,,,,1.0,,,,,,,,,,0.0,0.0,1.0,0.0,0.0,,,,,,,0,0,0,0,0,0,0,0,0,0,0,0,0,0,0,0,0,0,0,0,0,0,0,0,0,0,0,0,0,12,2,0
YeDlL27MiGr6F2ynL4uZag,Las Vegas,"1707 W Charleston Boulevard Las Vegas, NV 89102",36.1580564,-115.1643523,Menezes John M MD,5,5.0,NV,business,,,,,,,,,,,,,,,,,,,,,,,,,,,,,,,,,,,,,,,,,,,,,,,,0,0,0,0,0,0,0,0,0,0,0,0,0,0,0,0,0,0,0,0,0,0,0,0,0,0,0,0,0,0,0,0
QyhxmlXFrh7lKw4GZFdY7w,Las Vegas,"2570 S Decatur Blvd Westside Las Vegas, NV 89102",36.1433258,-115.20631599999999,A-1 Jewelry Supply,3,3.5,NV,business,,,,,,,,,,,,,,,,,,1.0,,,,,,,,,1.0,,,,,,,,,,0.0,0.0,0.0,0.0,0.0,,,,,,,0,0,0,0,0,0,0,0,0,0,0,0,0,0,0,0,0,0,0,0,0,0,0,0,0,0,0,0,0,0,1,0
v4pPsZCQeXU0bo9aqG5-4Q,Las Vegas,"4450 W Spring Mountain Rd Chinatown Las Vegas, NV 89102",36.1272,-115.2031,Macy's Furniture & Home Store,30,3.0,NV,business,11:00,18:00,10:00,21:00,10:00,21:00,10:00,21:00,10:00,21:00,10:00,21:00,09:00,21:00,,,,2.0,,,,,,,,,1.0,,,,,,,,,,0.0,0.0,1.0,0.0,0.0,,,,,,,0,0,0,0,0,0,0,0,0,0,0,0,0,0,0,0,0,0,0,0,0,0,0,0,0,0,0,0,0,173,9,1
upmnxJvYe5aOYE9wVNkGaw,Las Vegas,"2000 Industrial Rd Las Vegas, NV 89102",36.147816999999996,-115.16255179999999,Presidential Limousine,343,4.5,NV,business,00:00,00:00,00:00,00:00,00:00,00:00,00:00,00:00,00:00,00:00,00:00,00:00,00:00,00:00,,,,,,,,,,,,,,,,,,,,,,,,,,,,,,,,,,0,0,0,0,0,0,0,0,0,0,0,0,0,0,0,0,0,0,0,0,0,0,0,0,0,0,0,0,0,102,8,0
NBmP1IkZ0i9zGIP9r_91bw,Las Vegas,"2315 W Charleston Blvd Ste 180 Downtown Las Vegas, NV 89102",36.158906,-115.1731856,Quest Diagnostics,3,4.5,NV,business,,,,,,,,,,,,,,,,,,,,,,,,,,,,,,,,,,,,,,,,,,,,,,,,0,0,0,0,0,0,0,0,0,0,0,0,0,0,0,0,0,0,0,0,0,0,0,0,0,0,0,0,0,9,6,0
7zzpSjy06NjV_43mvUHzOw,Las Vegas,"1550 Industrial Rd Downtown Las Vegas, NV 89102",36.1532625,-115.15922909999999,Gray Line of Las Vegas,3,1.5,NV,business,,,,,,,,,,,,,,,,,,,,,,,,,,,,,,,,,,,,,,,,,,,,,,,,0,0,0,0,0,0,0,0,0,0,0,0,0,0,0,0,0,0,0,0,0,0,0,0,0,0,0,0,0,0,0,0
07M2c31v5Vzks5f9cjYLcQ,Las Vegas,"3961 W Charleston Blvd Westside Las Vegas, NV 89102",36.1585519,-115.193357,Frame Fixer,49,3.5,NV,business,,,09:30,17:30,09:30,17:30,09:30,17:30,09:30,17:30,09:30,17:30,10:00,16:00,,,,2.0,,,,,,,,,1.0,,,,,,,,,,0.0,0.0,1.0,0.0,0.0,,,,,,,0,0,0,0,0,0,0,0,0,0,0,0,0,0,0,0,0,0,0,0,0,0,0,0,0,0,0,0,0,25,6,0
FeW0MFtweidiX29TlFLsGQ,Las Vegas,"3300 W Sahara Ave Ste 100 Westside Las Vegas, NV 89102",36.145004799999995,-115.1860818,Wells Fargo Bank,8,4.0,NV,business,,,09:00,17:00,09:00,17:00,09:00,17:00,09:00,17:00,09:00,18:00,09:00,16:00,,,,,,,,,,,,,,,,,,,,,,,,,,,,,,,,,,0,0,0,0,0,0,0,0,0,0,0,0,0,0,0,0,0,0,0,0,0,0,0,0,0,0,0,0,0,74,3,0
eFT9YhG5eTv-jJclbwb_8g,Las Vegas,"4725 Spring Mountain Rd Chinatown Las Vegas, NV 89102",36.1255979,-115.20523100000001,Lucky Tropical Fish,16,4.0,NV,business,11:00,18:00,10:00,19:00,10:00,19:00,10:00,19:00,10:00,19:00,10:00,19:00,11:00,18:00,,,,,,,,,,,,,,,,,,,,,,,,,,,,,,,,,,0,0,0,0,0,0,0,0,0,0,0,0,0,0,0,0,0,0,0,0,0,0,0,0,0,0,0,0,0,29,2,0
dtFIokZN1q2fV9ULAEQMkQ,Las Vegas,"4270 S Decatur Blvd Ste A1 Las Vegas, NV 89103",36.112464700000004,-115.2073291,Rapid-Care Medical Clinic,10,3.0,NV,business,,,08:30,18:00,08:30,18:00,08:30,18:00,08:30,18:00,08:30,18:00,,,,,,,,,,,,,,,,,,,,,,,,,,,,,,,,,,,,0,0,0,0,0,0,0,0,0,0,0,0,0,0,0,0,0,0,0,0,0,0,0,0,0,0,0,0,0,5,0,0
FobKIPpp8QrPiveH0aV6MQ,Las Vegas,"2011 S Decatur Blvd Westside Las Vegas, NV 89102",36.149589299999995,-115.2071648,High Tech Transmissions & Automotive,3,5.0,NV,business,,,08:00,17:00,08:00,17:00,08:00,17:00,08:00,17:00,08:00,17:00,,,,,,,,,,,,,,,,,,,,,,,,,,,,,,,,,,,,0,0,0,0,0,0,0,0,0,0,0,0,0,0,0,0,0,0,0,0,0,0,0,0,0,0,0,0,0,3,0,0
u87nuRjlKygIxjLxZRj9Vw,Las Vegas,"1291 S. Decatur Blvd. 100 Westside Las Vegas, NV 89102",36.1560241,-115.2065084,T-Mobile,8,2.0,NV,business,11:00,18:00,10:00,20:00,10:00,20:00,10:00,20:00,10:00,20:00,10:00,20:00,10:00,19:00,,,,2.0,,,,,,,,,1.0,,,,,,,,,,,,,,,,,,,,,0,0,0,0,0,0,0,0,0,0,0,0,0,0,0,0,0,0,0,0,0,0,0,0,0,0,0,0,0,6,5,1
79oyYc48uyR8dgwt34ukig,Las Vegas,"Walmart Supercenter 4505 W Charleston Blvd Westside Las Vegas, NV 89102",36.156478899999996,-115.20232800000001,"Paul Thompson, OD PC",12,5.0,NV,business,,,10:00,18:00,10:00,18:00,11:00,19:00,10:00,18:00,10:00,18:00,10:00,18:00,,,,,,,,,,,,,,,,,,,,,,,,,,,,,,,,,,0,0,0,0,0,0,0,0,0,0,0,0,0,0,0,0,0,0,0,0,0,0,0,0,0,0,0,0,0,17,3,0
mjgs24NO7oZvwafPKN5dDw,Las Vegas,"4590 W Sahara Ave Westside Las Vegas, NV 89102",36.144944,-115.204148,Panda Express,16,3.5,NV,business,,,,,,,,,,,,,,,average,casual,none,1.0,0.0,0.0,0.0,1.0,0.0,1.0,0.0,1.0,1.0,0.0,no,,,,,,1.0,,0.0,0.0,0.0,0.0,0.0,,,,,,,1,0,1,0,0,0,0,0,0,0,1,0,0,0,0,0,0,0,0,0,0,0,0,0,0,0,0,0,0,92,1,0
RmEaR4ohuzgMhUGW2ORM_Q,Las Vegas,"3309 W Charleston Blvd Westside Las Vegas, NV 89102",36.1586982,-115.1866953,Vein Clinic of Las Vegas,22,4.0,NV,business,,,08:00,16:30,08:00,16:30,08:00,16:30,08:00,16:30,08:00,16:30,,,,,,,,,,,,,,,,,,,,,,,,,,,,,,,,,,,,0,0,0,0,0,0,0,0,0,0,0,0,0,0,0,0,0,0,0,0,0,0,0,0,0,0,0,0,0,5,0,0
AAqVpQ4TkN1O9dezF0ZfEQ,Las Vegas,"1815 W Charleston Boulevard Suite 6 Las Vegas, NV 89102",36.1580151,-115.16619340000001,Las Vegas Bouquet,4,4.0,NV,business,,,,,,,,,,,,,,,,,,2.0,,,,,,,,,1.0,,,,,,,,,,,,,,,,,,,,,0,0,0,0,0,0,0,0,0,0,0,0,0,0,0,0,0,0,0,0,0,0,0,0,0,0,0,0,0,0,0,0
ItwmR2pgWiZTrWy7ah8t0A,Las Vegas,"6020 S Rainbow Blvd Bldg C Spring Valley Las Vegas, NV 89118",36.0798619,-115.24263049999999,"Julio L Garcia, MD",9,3.5,NV,business,,,08:00,17:00,08:00,17:00,08:00,17:00,08:00,17:00,08:00,17:00,,,,,,,,,,,,,,,,,,,,,,,,,,,,,,,,,,,,0,0,0,0,0,0,0,0,0,0,0,0,0,0,0,0,0,0,0,0,0,0,0,0,0,0,0,0,0,0,1,0
GmLr1IEcCGGVkIFLi6j6zQ,Las Vegas,"1261 S Decatur Blvd Westside Las Vegas, NV 89102",36.156844299999996,-115.20659440000001,PetSmart,21,3.5,NV,business,09:00,19:00,09:00,21:00,09:00,21:00,09:00,21:00,09:00,21:00,09:00,21:00,09:00,21:00,,,,,,,,,,,,,,,,,,,,,,,,,,,,,,,,,,0,0,0,0,0,0,0,0,0,0,0,0,0,0,0,0,0,0,0,0,0,0,0,0,0,0,0,0,0,180,4,0
QkVSaXjg5475VD3sZixCZQ,Las Vegas,"2575 S Decatur Blvd Westside Las Vegas, NV 89102",36.143114000000004,-115.208505,Habib's Persian Cuisine,96,3.5,NV,business,,,11:00,22:00,11:00,22:00,11:00,22:00,11:00,22:00,11:00,22:00,11:00,22:00,quiet,casual,full_bar,2.0,0.0,0.0,,1.0,1.0,1.0,1.0,1.0,1.0,1.0,free,,,,,,1.0,,0.0,0.0,1.0,0.0,0.0,,,,,,,1,0,0,0,0,0,0,0,0,0,0,0,0,0,0,0,0,0,0,0,0,1,0,0,0,0,0,0,0,144,10,0
E1GSVwPUyMVR5xOj9871hg,Las Vegas,"3000 W Charleston Blvd Ste 1 Westside Las Vegas, NV 89102",36.159496000000004,-115.181316,"Benjamin Rodriguez, MD",4,4.5,NV,business,,,09:00,17:00,09:00,17:00,09:00,17:00,09:00,17:00,09:00,17:00,,,,,,,,,,,,,,,,,,,,,,,,,,,,,,,,,,,,0,0,0,0,0,0,0,0,0,0,0,0,0,0,0,0,0,0,0,0,0,0,0,0,0,0,0,0,0,0,1,0
pj0vl4DIlDCChe80Df40Yw,Las Vegas,"2003 S Decatur Blvd Ste B Westside Las Vegas, NV 89102",36.149788799999996,-115.20759550000001,Food Express Chinese Restaurant,160,4.0,NV,business,11:00,00:00,11:00,00:00,11:00,00:00,11:00,00:00,11:00,00:00,11:00,00:00,11:00,00:00,average,casual,beer_and_wine,2.0,0.0,0.0,,1.0,0.0,1.0,1.0,1.0,1.0,0.0,no,,,,,,1.0,,0.0,0.0,1.0,0.0,0.0,,,,,,,1,0,0,0,0,0,0,0,0,0,1,0,0,0,0,0,0,0,0,0,0,0,0,0,0,0,0,0,0,416,53,1
MI0OfnmlfkUh2xPhT1lQSg,Las Vegas,"4595 W Charleston Blvd Westside Las Vegas, NV 89102",36.158992,-115.2026404,China Star,37,2.5,NV,business,10:00,22:00,10:00,22:00,10:00,22:00,10:00,22:00,10:00,22:00,10:00,22:00,10:00,22:00,average,casual,none,1.0,0.0,0.0,,1.0,0.0,0.0,1.0,1.0,1.0,0.0,no,,,,,,1.0,,0.0,0.0,1.0,0.0,0.0,,,,,,,1,0,0,0,0,0,0,0,0,0,1,0,0,0,0,0,0,0,0,0,0,0,0,0,0,0,0,0,0,67,6,0
FkXmvdpccuMFfNI6zgmXEA,Las Vegas,"2401 S Decatur Blvd Westside Las Vegas, NV 89102",36.1450429,-115.20761540000001,El Pollo Loco,32,3.0,NV,business,09:00,23:00,09:00,23:00,09:00,23:00,09:00,23:00,09:00,23:00,09:00,23:00,09:00,23:00,average,casual,none,1.0,0.0,1.0,1.0,1.0,0.0,1.0,0.0,1.0,1.0,0.0,no,,,,,0.0,1.0,,0.0,0.0,1.0,0.0,0.0,,,,,,,1,0,1,0,0,0,1,0,0,0,0,0,0,0,0,0,0,0,0,0,0,0,0,0,0,0,0,0,0,268,15,1
p6CQwATkgNNyRBLuuUmz-g,Las Vegas,"3540 W Sahara Ave Ste E2 Westside Las Vegas, NV 89102",36.145784899999995,-115.18856480000001,Knives & More,5,3.5,NV,business,,,,,,,,,,,,,,,,,,3.0,,,,,,,,,1.0,,,,,,,,,,,,,,,,,,,,,0,0,0,0,0,0,0,0,0,0,0,0,0,0,0,0,0,0,0,0,0,0,0,0,0,0,0,0,0,6,1,0
Nw_UTA36EmT0wS5DqQI3yw,Las Vegas,"3540 W Sahara Ave Ste E2 Westside Las Vegas, NV 89102",36.145784899999995,-115.18856480000001,Bonds House of Cutlery,8,3.0,NV,business,,,,,,,,,,,,,,,,,,3.0,,,,,,,,,1.0,,,,,,,,,,0.0,0.0,0.0,0.0,0.0,,,,,,,0,0,0,0,0,0,0,0,0,0,0,0,0,0,0,0,0,0,0,0,0,0,0,0,0,0,0,0,0,10,0,0
BhYS6Vo44NnZZDoJdWLMmw,Las Vegas,"4559 W Charleston Blvd Westside Las Vegas, NV 89102",36.158988799999996,-115.2020861,Little Caesars Pizza,4,2.0,NV,business,,,,,,,,,,,,,,,,casual,,1.0,1.0,0.0,,0.0,0.0,,,1.0,1.0,0.0,,,,,,,1.0,,,,,,,,,,,,,1,0,0,0,1,0,0,0,0,0,0,0,0,0,0,0,0,0,0,0,0,0,0,0,0,0,0,0,0,18,0,0
IQvzvmmdl1RGhyeaoSNZVg,Las Vegas,"4335 W Charleston Blvd Westside Las Vegas, NV 89102",36.158787100000005,-115.19881869999999,Regal Upholstery & Drapery Co.,6,4.5,NV,business,,,08:00,17:00,08:00,17:00,08:00,17:00,08:00,17:00,08:00,17:00,,,,,,,,,,,,,,,1.0,,,,,,,,,,,,,,,,,,,,,0,0,0,0,0,0,0,0,0,0,0,0,0,0,0,0,0,0,0,0,0,0,0,0,0,0,0,0,0,0,0,0
FM1Jlw53TB-lxqlXIdxrQg,Las Vegas,"4604 W Sahara Ave Westside Las Vegas, NV 89102",36.145039700000005,-115.204936,Best Burger,3,3.5,NV,business,,,,,,,,,,,,,,,,casual,none,1.0,1.0,1.0,,1.0,,,0.0,1.0,1.0,0.0,,,,,,,1.0,,0.0,0.0,0.0,0.0,0.0,,,,,,,1,0,0,0,0,0,0,0,0,1,0,0,0,0,0,0,0,0,0,0,0,0,0,0,0,0,0,0,0,0,0,0
a_4EL4qCLRicDKu5R51kNw,Las Vegas,"4580 W Sahara Ave Westside Las Vegas, NV 89102",36.1454078920969,-115.202758798275,Clean-Mart,8,4.0,NV,business,,,08:00,17:00,08:00,17:00,08:00,17:00,08:00,17:00,08:00,17:00,08:00,15:00,,,,,,,,,,,,,1.0,,,,,,,,,,0.0,0.0,1.0,0.0,0.0,,,,,,,0,0,0,0,0,0,0,0,0,0,0,0,0,0,0,0,0,0,0,0,0,0,0,0,0,0,0,0,0,7,5,0
lKESFH7NedlFBnl0kegDKw,Las Vegas,"1291 S Decatur Blvd Westside Las Vegas, NV 89102",36.1560241,-115.2065084,US Nail & Spa,18,3.0,NV,business,10:00,17:00,09:00,19:00,09:00,19:00,09:00,19:00,09:00,19:00,09:00,19:00,09:00,19:00,,,,2.0,,,,,,,,,1.0,,,,,,,,,,0.0,0.0,1.0,0.0,0.0,,,,,,,0,0,0,0,0,0,0,0,0,0,0,0,0,0,0,0,0,0,0,0,0,0,0,0,0,0,0,0,0,14,4,0
Swg-BQdm6kBhk3EFtSxJug,Las Vegas,"4320 W Desert Inn Rd Ste D Westside Las Vegas, NV 89102",36.1305128,-115.1968376,Sly Parrot Bird Company,4,5.0,NV,business,,,,,,,,,,,,,,,,,,,,,,,,,,,,,,,,,,,,,,,,,,,,,,,,0,0,0,0,0,0,0,0,0,0,0,0,0,0,0,0,0,0,0,0,0,0,0,0,0,0,0,0,0,12,3,0
lZVEZb4yMs_oFZvAnbVMpw,Las Vegas,"1121 S Decatur Blvd Westside Las Vegas, NV 89102",36.1586622,-115.2057344,Meatheads Video Poker Bar,10,4.0,NV,business,00:00,00:00,00:00,00:00,00:00,00:00,00:00,00:00,00:00,00:00,00:00,00:00,00:00,00:00,very_loud,,full_bar,1.0,,0.0,,1.0,1.0,,,,1.0,,,1.0,1.0,yes,,,,0.0,0.0,0.0,0.0,0.0,0.0,0.0,,1.0,1.0,0.0,,0,0,0,1,0,0,0,0,0,0,0,0,0,0,0,0,0,0,0,0,0,0,0,0,0,0,0,0,0,54,14,0
Bs7FcmlfHfCq2lf-FUKLCw,Las Vegas,"4604 W Sahara Ave Ste 7 Westside Las Vegas, NV 89102",36.145039700000005,-115.204936,Don Tortaco's,42,3.5,NV,business,,,,,,,,,,,,,,,average,casual,none,1.0,0.0,0.0,0.0,1.0,0.0,0.0,0.0,1.0,1.0,0.0,no,,,,,,1.0,,0.0,0.0,1.0,0.0,0.0,,,,,,,1,0,1,0,0,0,1,0,0,0,0,0,0,0,0,0,0,0,0,0,0,0,0,0,0,0,0,0,0,108,10,0
19K6UQNH1821jPPj2nLu0A,Las Vegas,"4750 W Sahara Ave Westside Las Vegas, NV 89102",36.1455896,-115.2065227,Habib's Mediterranean Market,3,1.5,NV,business,,,,,,,,,,,,,,,,,,,,,,,,,,,,,,,,,,,,,,,,,,,,,,,,0,0,0,0,0,0,0,1,0,0,0,0,0,0,0,0,0,0,0,0,0,0,0,0,0,0,0,0,0,0,2,0
rm6ZxuWNSSjarYVtqGzReg,Las Vegas,"2701 W Charleston Blvd Westside Las Vegas, NV 89102",36.1583894,-115.17793329999999,Las Vegas Dental Group,12,4.5,NV,business,,,07:30,16:30,07:30,16:30,07:30,16:30,07:30,16:30,07:30,12:30,,,,,,,,,,,,,,,,,,,,,,,,,,,,,,,,,,,,0,0,0,0,0,0,0,0,0,0,0,0,0,0,0,0,0,0,0,0,0,0,0,0,0,0,0,0,0,0,0,0
nA7z-PJ85c2zqQxCoj9gww,Las Vegas,"1229 S Eastern Ave Downtown Las Vegas, NV 89104",36.1553169,-115.118574,Gettinger Chiropractic,3,5.0,NV,business,,,,,,,,,,,,,,,,,,,,,,,,,,,,,,,,,,,,,,,,,,,,,,,,0,0,0,0,0,0,0,0,0,0,0,0,0,0,0,0,0,0,0,0,0,0,0,0,0,0,0,0,0,0,1,0
2BbRq_bSINsJpaC_aETaIg,Las Vegas,"1330 S Valley View Blvd Westside Las Vegas, NV 89102",36.155859,-115.194566,Valley View Surgery Center,5,3.0,NV,business,,,,,,,,,,,,,,,,,,,,,,,,,,,,,,,,,,,,,,,,,,,,,,,,0,0,0,0,0,0,0,0,0,0,0,0,0,0,0,0,0,0,0,0,0,0,0,0,0,0,0,0,0,17,2,0
NqFf7IAq7vjGuo32XhyiJQ,Las Vegas,"4640 W Sahara Avenue Westside Las Vegas, NV 89102",36.1446131,-115.20307009999999,T J Maxx,14,3.5,NV,business,,,,,,,,,,,,,,,,,,2.0,,,,,,,,,1.0,,,,,,,,,,0.0,0.0,1.0,0.0,0.0,,,,,,,0,0,0,0,0,0,0,0,0,0,0,0,0,0,0,0,0,0,0,0,0,0,0,0,0,0,0,0,0,114,4,0
0rFzSRPPcW-kQehencVOYQ,Las Vegas,"4069 W Charleston Blvd Westside Las Vegas, NV 89102",36.15895689999999,-115.1946693,A-1 Vacuum & Sewing,9,2.5,NV,business,,,09:00,18:00,09:00,18:00,09:00,18:00,09:00,18:00,09:00,18:00,09:00,17:00,,,,,,,,,,,,,1.0,,,,,,,,,,,,,,,,,,,,,0,0,0,0,0,0,0,0,0,0,0,0,0,0,0,0,0,0,0,0,0,0,0,0,0,0,0,0,0,10,0,0
2tNfcFzvl-WG2Tj5zCFMeQ,Las Vegas,"1405 Arville St Ste 102 Westside Las Vegas, NV 89102",36.155724600000006,-115.1996422,Kelly Chiropractic & Rehabilitation Center,5,5.0,NV,business,,,15:00,18:00,,,15:00,18:00,09:00,12:00,15:00,18:00,,,,,,,,,,,,,,,,,,,,,,,,,,,,,,,,,,,,0,0,0,0,0,0,0,0,0,0,0,0,0,0,0,0,0,0,0,0,0,0,0,0,0,0,0,0,0,23,3,0
tHv8ZZ-ssLTtqRIO9_XPdA,Las Vegas,"4312 W Charleston Blvd Westside Las Vegas, NV 89102",36.159306,-115.19941200000001,Gregory Moore - State Farm Insurance Agent,4,4.0,NV,business,,,09:00,17:30,09:00,17:30,09:00,17:30,09:00,17:30,09:00,17:00,09:00,13:00,,,,,,,,,,,,,,,,,,,,,,,,,,,,,,,,,,0,0,0,0,0,0,0,0,0,0,0,0,0,0,0,0,0,0,0,0,0,0,0,0,0,0,0,0,0,0,0,0
9mc3M0-_fke4ssQ2b0kPgA,Las Vegas,"1291 S Decatur Boulevard Westside Las Vegas, NV 89102",36.156309,-115.2070987,Sally Beauty Supply,10,2.0,NV,business,,,,,,,,,,,,,,,,,,1.0,,,,,,,,,1.0,,,,,,,,,,0.0,0.0,0.0,0.0,0.0,,,,,,,0,0,0,0,0,0,0,0,0,0,0,0,0,0,0,0,0,0,0,0,0,0,0,0,0,0,0,0,0,13,3,0
eRt02n5zLvhZJK8wDbXsgg,Las Vegas,"1230 S Decatur Blvd Westside Las Vegas, NV 89102",36.156645700000006,-115.20774540000001,Family Christian,3,4.5,NV,business,12:00,17:00,09:30,21:00,09:30,21:00,09:30,21:00,09:30,21:00,09:30,21:00,09:30,21:00,,,,2.0,,,,,,,,,1.0,,,,,,,,,,1.0,0.0,0.0,0.0,0.0,,,,,,,0,0,0,0,0,0,0,0,0,0,0,0,0,0,0,0,0,0,0,0,0,0,0,0,0,0,0,0,0,20,0,0
FZ_ne5hPqmeEesVZphq_3Q,Las Vegas,"2520 S Decatur Blvd Westside Las Vegas, NV 89102",36.144021200000005,-115.20739409999999,Chili's Grill & Bar,5,4.0,NV,business,,,,,,,,,,,,,,,average,,full_bar,2.0,1.0,,,,,,1.0,1.0,,1.0,no,,,,,,,,0.0,0.0,0.0,0.0,0.0,,,,,,,1,0,0,0,0,0,0,0,1,0,0,0,0,0,0,0,0,0,0,0,0,0,0,0,0,0,0,0,0,0,0,0
aiY6fYEgNifk4pi0PDFJDQ,Las Vegas,"3711 W Sirius Ave Westside Las Vegas, NV 89102",36.133020200000004,-115.18858540000001,K & B Door Company,5,4.5,NV,business,,,07:30,16:30,07:30,16:30,07:30,16:30,07:30,16:30,07:30,16:30,,,,,,,,,,,,,,,0.0,,,,,,,,,,,,,,,,,,,,,0,0,0,0,0,0,0,0,0,0,0,0,0,0,0,0,0,0,0,0,0,0,0,0,0,0,0,0,0,0,0,0
TjCbPRoM2JIwkHomtXztrw,Las Vegas,"4511 W Sahara Ave Westside Las Vegas, NV 89102",36.143637877817795,-115.20153156256599,B&C Camera,43,3.5,NV,business,11:00,17:30,09:00,19:00,09:00,19:00,09:00,19:00,09:00,19:00,09:00,19:00,09:00,19:00,,,,3.0,,,,,,,,,1.0,,,,,,,,,,0.0,0.0,1.0,0.0,0.0,,,,,,,0,0,0,0,0,0,0,0,0,0,0,0,0,0,0,0,0,0,0,0,0,0,0,0,0,0,0,0,0,91,7,0
xxOQ7h6s3InV8o8DOVHlMA,Las Vegas,"3909 W Sahara Ave Ste 1 Westside Las Vegas, NV 89102",36.1440254,-115.1938769,Island Style,572,4.5,NV,business,,,11:00,21:00,11:00,21:00,11:00,21:00,11:00,21:00,11:00,21:00,11:00,21:00,average,casual,none,2.0,0.0,0.0,,1.0,1.0,1.0,1.0,1.0,1.0,0.0,no,,,,,,1.0,,0.0,0.0,1.0,0.0,0.0,,,,,,,1,0,0,0,0,0,0,0,0,0,0,0,0,0,0,0,0,1,0,0,0,0,0,0,0,1,0,0,0,2020,195,4
XP4Yr5jCSvLy_stPz9NjiQ,Las Vegas,"3290 Pinks Pl Westside Las Vegas, NV 89102",36.129046,-115.18411599999999,Precision Performance,33,5.0,NV,business,,,07:30,17:30,07:30,17:30,07:30,17:30,07:30,17:30,07:30,17:30,,,,,,,,,,,,,,,,,,,,,,,,,,,,,,,,,,,,0,0,0,0,0,0,0,0,0,0,0,0,0,0,0,0,0,0,0,0,0,0,0,0,0,0,0,0,0,19,1,0
ClnqyvP1u5zL-Ih4QKGwFQ,Las Vegas,"3054 S Valley View Blvd Westside Las Vegas, NV 89102",36.134471500000004,-115.19007409999999,Nevada Off Road Buggy,5,4.5,NV,business,,,,,09:00,17:00,09:00,17:00,09:00,17:00,09:00,17:00,09:00,14:00,,,,,,,,,,,,,,,,,,,,,,,,,,,,,,,,,,0,0,0,0,0,0,0,0,0,0,0,0,0,0,0,0,0,0,0,0,0,0,0,0,0,0,0,0,0,5,3,0
c9k4czhXSFYiDkNGSvd-MA,Las Vegas,"3228 Meade Ave Westside Las Vegas, NV 89102",36.136638700000006,-115.1845851,Kool Radiator Service,4,5.0,NV,business,,,,,,,,,,,,,,,,,,,,,,,,,,,,,,,,,,,,,,,,,,,,,,,,0,0,0,0,0,0,0,0,0,0,0,0,0,0,0,0,0,0,0,0,0,0,0,0,0,0,0,0,0,0,0,0
AOXhP1K0ntZEvbQSlM_TkQ,Las Vegas,"2610 S Decatur Blvd Westside Las Vegas, NV 89102",36.142784899999995,-115.20629790000001,Hobby People,18,3.0,NV,business,10:00,17:00,10:00,19:00,10:00,19:00,10:00,19:00,10:00,19:00,10:00,19:00,10:00,18:00,,,,3.0,,,,,,,,,1.0,,,,,,,,,,0.0,0.0,1.0,0.0,0.0,,,,,,,0,0,0,0,0,0,0,0,0,0,0,0,0,0,0,0,0,0,0,0,0,0,0,0,0,0,0,0,0,28,4,0
gAC_WZFOAVPo_Ep3di2eQQ,Las Vegas,"4375 Spring Mountain Rd Chinatown Las Vegas, NV 89102",36.126065399999995,-115.19861609999998,Circle K,8,2.5,NV,business,,,,,,,,,,,,,,,,,,2.0,,,,,,,,,1.0,,,,,,,,,,0.0,0.0,1.0,0.0,0.0,,,,,,,0,0,0,0,0,0,0,0,0,0,0,0,0,0,0,0,0,0,0,0,0,0,0,0,0,0,0,0,0,182,5,0
mU-6t2BvgkE9HjlYgE-3zg,Las Vegas,"3355 Spring Mountain Rd Chinatown Las Vegas, NV 89102",36.1259684,-115.1848366,Sand Dollar Lounge,10,4.0,NV,business,16:00,05:30,16:00,05:30,16:00,05:30,16:00,05:30,16:00,05:30,16:00,05:30,16:00,05:30,,,full_bar,1.0,,0.0,,1.0,,,,0.0,1.0,,,,,yes,,,,,0.0,0.0,0.0,0.0,0.0,0.0,,0.0,0.0,0.0,,0,0,0,1,0,1,0,0,0,0,0,0,0,0,0,0,0,0,0,0,0,0,0,0,0,0,0,0,0,25,7,0
gaiGB6QPmzWLPW9MIhuFGA,Las Vegas,"3290 Pinks Pl Westside Las Vegas, NV 89102",36.129046,-115.18411599999999,Wally's Independent Honda & Acura Service Center,43,4.5,NV,business,,,07:30,17:30,07:30,17:30,07:30,17:30,07:30,17:30,07:30,17:30,,,,,,,,,,,,,,,,,,,,,,,,,,,,,,,,,,,,0,0,0,0,0,0,0,0,0,0,0,0,0,0,0,0,0,0,0,0,0,0,0,0,0,0,0,0,0,23,4,0
